time_s,phase,target_x_m,target_y_m,target_z_m,target_n_m,target_e_m,target_d_m,actual_x_m,actual_y_m,actual_z_m,actual_n_m,actual_e_m,actual_d_m,error_x_m,error_y_m,error_z_m,error_xy_m,error_3d_m,roll_deg,pitch_deg,yaw_deg,vbat_v
0.156,init,0.0000,0.0000,0.0000,0.0000,-0.0000,-0.0000,0.0027,-0.0000,0.0160,0.0027,0.0000,-0.0160,-0.0027,0.0000,-0.0160,0.0027,0.0163,0.000,0.000,0.000,4.107
0.214,init,0.0000,0.0000,0.0000,0.0000,-0.0000,-0.0000,0.0031,0.0004,0.0171,0.0031,-0.0004,-0.0171,-0.0031,-0.0004,-0.0171,0.0031,0.0174,0.961,0.085,0.008,4.101
0.313,init,0.0000,0.0000,0.0000,0.0000,-0.0000,-0.0000,0.0037,0.0010,0.0186,0.0037,-0.0010,-0.0186,-0.0037,-0.0010,-0.0186,0.0038,0.0189,0.951,0.083,0.005,4.101
0.454,init,0.0000,0.0000,0.0000,0.0000,-0.0000,-0.0000,0.0044,0.0017,0.0166,0.0044,-0.0017,-0.0166,-0.0044,-0.0017,-0.0166,0.0047,0.0173,0.943,0.082,0.011,4.101
0.557,init,0.0000,0.0000,0.0000,0.0000,-0.0000,-0.0000,0.0052,0.0025,0.0155,0.0052,-0.0025,-0.0155,-0.0052,-0.0025,-0.0155,0.0058,0.0166,0.937,0.077,0.009,4.101
0.632,init,0.0000,0.0000,0.0000,0.0000,-0.0000,-0.0000,0.0062,0.0034,0.0169,0.0062,-0.0034,-0.0169,-0.0062,-0.0034,-0.0169,0.0070,0.0183,0.933,0.077,0.008,4.101
0.745,takeoff,0.0000,0.0000,0.0065,0.0000,-0.0000,-0.0065,0.0073,0.0044,0.0168,0.0073,-0.0044,-0.0168,-0.0073,-0.0044,-0.0103,0.0085,0.0133,0.926,0.078,0.007,4.101
0.814,takeoff,0.0000,0.0000,0.0156,0.0000,-0.0000,-0.0156,0.0154,0.0008,0.0174,0.0154,-0.0008,-0.0174,-0.0154,-0.0008,-0.0018,0.0155,0.0156,0.921,0.075,0.005,3.938
0.913,takeoff,0.0000,0.0000,0.0290,0.0000,-0.0000,-0.0290,-0.0038,-0.0462,0.0154,-0.0038,0.0462,-0.0154,0.0038,0.0462,0.0136,0.0464,0.0483,1.015,0.099,-0.157,3.954
1.026,takeoff,0.0000,0.0000,0.0440,0.0000,-0.0000,-0.0440,-0.0064,-0.0539,0.0057,-0.0064,0.0539,-0.0057,0.0064,0.0539,0.0383,0.0543,0.0664,-0.825,0.234,-0.454,3.938
1.113,takeoff,0.0000,0.0000,0.0555,0.0000,-0.0000,-0.0555,-0.0106,-0.0199,-0.0254,-0.0106,0.0199,0.0254,0.0106,0.0199,0.0809,0.0226,0.0840,-7.877,0.681,-0.613,3.890
1.219,takeoff,0.0000,0.0000,0.0697,0.0000,-0.0000,-0.0697,-0.0245,0.0647,-0.0015,-0.0245,-0.0647,0.0015,0.0245,-0.0647,0.0711,0.0692,0.0992,1.160,-1.638,-0.796,3.948
1.312,takeoff,0.0000,0.0000,0.0821,0.0000,-0.0000,-0.0821,-0.0211,0.1567,0.0235,-0.0211,-0.1567,-0.0235,0.0211,-0.1567,0.0586,0.1581,0.1687,11.627,-1.967,-0.635,3.970
1.432,takeoff,0.0000,0.0000,0.0981,0.0000,-0.0000,-0.0981,-0.0218,0.1920,0.0147,-0.0218,-0.1920,-0.0147,0.0218,-0.1920,0.0834,0.1933,0.2105,16.412,-1.258,-0.529,3.880
1.513,takeoff,0.0000,0.0000,0.1089,0.0000,-0.0000,-0.1089,-0.0086,0.1239,0.0186,-0.0086,-0.1239,-0.0186,0.0086,-0.1239,0.0903,0.1242,0.1535,10.760,-0.434,-0.737,3.922
1.626,takeoff,0.0000,0.0000,0.1239,0.0000,-0.0000,-0.1239,-0.0048,0.0888,0.0199,-0.0048,-0.0888,-0.0199,0.0048,-0.0888,0.1041,0.0889,0.1369,-5.219,2.186,-0.925,3.938
1.714,takeoff,0.0000,0.0000,0.1356,0.0000,-0.0000,-0.1356,-0.0035,0.0664,0.0150,-0.0035,-0.0664,-0.0150,0.0035,-0.0664,0.1206,0.0665,0.1377,-9.747,2.224,-1.072,3.890
1.823,takeoff,0.0000,0.0000,0.1502,0.0000,-0.0000,-0.1502,0.0023,0.0134,0.0228,0.0023,-0.0134,-0.0228,-0.0023,-0.0134,0.1275,0.0136,0.1282,-9.289,1.148,-1.204,3.917
1.913,takeoff,0.0000,0.0000,0.1622,0.0000,-0.0000,-0.1622,0.0054,0.0018,0.0194,0.0054,-0.0018,-0.0194,-0.0054,-0.0018,0.1429,0.0057,0.1430,-11.380,1.717,-1.008,3.906
2.026,takeoff,0.0000,0.0000,0.1773,0.0000,-0.0000,-0.1773,0.0016,0.0419,0.0228,0.0016,-0.0419,-0.0228,-0.0016,-0.0419,0.1544,0.0420,0.1600,-4.078,0.673,-1.038,3.880
2.113,takeoff,0.0000,0.0000,0.1889,0.0000,-0.0000,-0.1889,-0.0034,0.0872,0.0553,-0.0034,-0.0872,-0.0553,0.0034,-0.0872,0.1336,0.0873,0.1596,7.535,-0.905,-0.785,3.917
2.223,takeoff,0.0000,0.0000,0.2035,0.0000,-0.0000,-0.2035,-0.0019,0.0866,0.0780,-0.0019,-0.0866,-0.0780,0.0019,-0.0866,0.1255,0.0866,0.1525,14.011,-1.613,-0.572,3.911
2.313,takeoff,0.0000,0.0000,0.2155,0.0000,-0.0000,-0.2155,0.0024,0.0553,0.0896,0.0024,-0.0553,-0.0896,-0.0024,-0.0553,0.1259,0.0553,0.1376,9.371,-1.078,-0.758,3.874
2.430,takeoff,0.0000,0.0000,0.2312,0.0000,-0.0000,-0.2312,0.0063,0.0247,0.1036,0.0063,-0.0247,-0.1036,-0.0063,-0.0247,0.1276,0.0255,0.1301,-0.694,0.343,-0.830,3.880
2.516,takeoff,0.0000,0.0000,0.2426,0.0000,-0.0000,-0.2426,0.0079,0.0064,0.1209,0.0079,-0.0064,-0.1209,-0.0079,-0.0064,0.1217,0.0102,0.1221,-6.318,1.201,-0.983,3.874
2.628,takeoff,0.0000,0.0000,0.2576,0.0000,-0.0000,-0.2576,0.0076,0.0009,0.1382,0.0076,-0.0009,-0.1382,-0.0076,-0.0009,0.1194,0.0076,0.1197,-6.273,0.885,-1.028,3.864
2.717,takeoff,0.0000,0.0000,0.2694,0.0000,-0.0000,-0.2694,0.0070,0.0045,0.1630,0.0070,-0.0045,-0.1630,-0.0070,-0.0045,0.1064,0.0083,0.1067,-3.643,0.408,-1.067,3.874
2.831,takeoff,0.0000,0.0000,0.2846,0.0000,-0.0000,-0.2846,0.0055,0.0121,0.1924,0.0055,-0.0121,-0.1924,-0.0055,-0.0121,0.0922,0.0133,0.0931,-1.092,-0.096,-1.061,3.885
2.916,takeoff,0.0000,0.0000,0.2960,0.0000,-0.0000,-0.2960,0.0049,0.0181,0.2186,0.0049,-0.0181,-0.2186,-0.0049,-0.0181,0.0773,0.0188,0.0796,0.915,-0.386,-1.106,3.880
3.036,takeoff,0.0000,0.0000,0.3119,0.0000,-0.0000,-0.3119,0.0032,0.0219,0.2469,0.0032,-0.0219,-0.2469,-0.0032,-0.0219,0.0650,0.0221,0.0686,2.048,-0.440,-0.999,3.880
3.116,takeoff,0.0000,0.0000,0.3227,0.0000,-0.0000,-0.3227,0.0000,0.0192,0.2768,0.0000,-0.0192,-0.2768,-0.0000,-0.0192,0.0458,0.0192,0.0497,1.802,-0.366,-0.968,3.896
3.218,takeoff,0.0000,0.0000,0.3362,0.0000,-0.0000,-0.3362,-0.0020,0.0135,0.3028,-0.0020,-0.0135,-0.3028,0.0020,-0.0135,0.0334,0.0137,0.0361,1.472,-0.206,-0.893,3.890
3.317,takeoff,0.0000,0.0000,0.3494,0.0000,-0.0000,-0.3494,0.0002,0.0108,0.3288,0.0002,-0.0108,-0.3288,-0.0002,-0.0108,0.0206,0.0108,0.0233,-0.522,-1.234,-0.737,3.896
3.416,takeoff,0.0000,0.0000,0.3626,0.0000,-0.0000,-0.3626,0.0090,0.0114,0.3505,0.0090,-0.0114,-0.3505,-0.0090,-0.0114,0.0120,0.0145,0.0188,-0.678,-0.561,-0.610,3.890
3.516,takeoff,0.0000,0.0000,0.3760,0.0000,-0.0000,-0.3760,0.0128,0.0129,0.3668,0.0128,-0.0129,-0.3668,-0.0128,-0.0129,0.0092,0.0182,0.0203,-0.476,0.603,-0.457,3.885
3.623,takeoff,0.0000,0.0000,0.3902,0.0000,-0.0000,-0.3902,0.0155,0.0181,0.3773,0.0155,-0.0181,-0.3773,-0.0155,-0.0181,0.0130,0.0238,0.0271,0.005,1.104,-0.387,3.880
3.722,takeoff,0.0000,0.0000,0.4000,0.0000,-0.0000,-0.4000,0.0150,0.0220,0.3874,0.0150,-0.0220,-0.3874,-0.0150,-0.0220,0.0126,0.0267,0.0295,0.870,1.080,-0.374,3.880
3.824,takeoff,0.0000,0.0000,0.4000,0.0000,-0.0000,-0.4000,0.0122,0.0246,0.3993,0.0122,-0.0246,-0.3993,-0.0122,-0.0246,0.0007,0.0274,0.0274,0.981,0.562,-0.394,3.885
3.922,takeoff,0.0000,0.0000,0.4000,0.0000,-0.0000,-0.4000,0.0082,0.0247,0.4049,0.0082,-0.0247,-0.4049,-0.0082,-0.0247,-0.0049,0.0261,0.0265,0.956,-0.046,-0.354,3.880
4.022,hover,0.0000,0.0000,0.4000,0.0000,-0.0000,-0.4000,0.0081,0.0241,0.4103,0.0081,-0.0241,-0.4103,-0.0081,-0.0241,-0.0103,0.0254,0.0274,0.598,-0.650,-0.399,3.874
4.112,hover,0.0000,0.0000,0.4000,0.0000,-0.0000,-0.4000,0.0116,0.0235,0.4164,0.0116,-0.0235,-0.4164,-0.0116,-0.0235,-0.0164,0.0262,0.0309,0.528,-0.502,-0.331,3.874
4.216,hover,0.0000,0.0000,0.4000,0.0000,-0.0000,-0.4000,0.0168,0.0224,0.4218,0.0168,-0.0224,-0.4218,-0.0168,-0.0224,-0.0218,0.0280,0.0355,0.298,-0.135,-0.296,3.880
4.312,hover,0.0000,0.0000,0.4000,0.0000,-0.0000,-0.4000,0.0264,0.0253,0.4256,0.0264,-0.0253,-0.4256,-0.0264,-0.0253,-0.0256,0.0366,0.0447,0.007,0.648,-0.343,3.874
4.421,hover,0.0000,0.0000,0.4000,0.0000,-0.0000,-0.4000,0.0299,0.0290,0.4295,0.0299,-0.0290,-0.4295,-0.0299,-0.0290,-0.0295,0.0417,0.0510,0.237,1.470,-0.421,3.880
4.513,hover,0.0000,0.0000,0.4000,0.0000,-0.0000,-0.4000,0.0233,0.0297,0.4314,0.0233,-0.0297,-0.4314,-0.0233,-0.0297,-0.0314,0.0377,0.0491,0.933,1.539,-0.546,3.874
4.629,hover,0.0000,0.0000,0.4000,0.0000,-0.0000,-0.4000,0.0179,0.0310,0.4322,0.0179,-0.0310,-0.4322,-0.0179,-0.0310,-0.0322,0.0358,0.0481,0.965,0.374,-0.715,3.869
4.712,hover,0.0000,0.0000,0.4000,0.0000,-0.0000,-0.4000,0.0202,0.0309,0.4320,0.0202,-0.0309,-0.4320,-0.0202,-0.0309,-0.0320,0.0369,0.0488,0.669,-0.773,-0.782,3.864
4.816,hover,0.0000,0.0000,0.4000,0.0000,-0.0000,-0.4000,0.0246,0.0266,0.4348,0.0246,-0.0266,-0.4348,-0.0246,-0.0266,-0.0348,0.0362,0.0503,0.685,-0.009,-0.714,3.874
4.912,hover,0.0000,0.0000,0.4000,0.0000,-0.0000,-0.4000,0.0269,0.0198,0.4358,0.0269,-0.0198,-0.4358,-0.0269,-0.0198,-0.0358,0.0334,0.0489,0.175,0.467,-0.630,3.874
5.016,hover,0.0000,0.0000,0.4000,0.0000,-0.0000,-0.4000,0.0278,0.0208,0.4357,0.0278,-0.0208,-0.4357,-0.0278,-0.0208,-0.0357,0.0347,0.0498,-0.629,0.612,-0.478,3.869
5.129,north / forward,0.0042,0.0000,0.4000,0.0042,-0.0000,-0.4000,0.0253,0.0215,0.4361,0.0253,-0.0215,-0.4361,-0.0211,-0.0215,-0.0361,0.0301,0.0470,-0.427,0.739,-0.350,3.874
5.228,north / forward,0.0141,0.0000,0.4000,0.0141,-0.0000,-0.4000,0.0213,0.0277,0.4347,0.0213,-0.0277,-0.4347,-0.0072,-0.0277,-0.0347,0.0286,0.0449,0.009,0.339,-0.341,3.869
5.315,north / forward,0.0228,0.0000,0.4000,0.0228,-0.0000,-0.4000,0.0192,0.0308,0.4363,0.0192,-0.0308,-0.4363,0.0036,-0.0308,-0.0363,0.0310,0.0477,0.561,-0.182,-0.347,3.869
5.419,north / forward,0.0332,0.0000,0.4000,0.0332,-0.0000,-0.4000,0.0209,0.0257,0.4365,0.0209,-0.0257,-0.4365,0.0123,-0.0257,-0.0365,0.0285,0.0464,1.318,-0.691,-0.407,3.869
5.523,north / forward,0.0436,0.0000,0.4000,0.0436,-0.0000,-0.4000,0.0230,0.0181,0.4370,0.0230,-0.0181,-0.4370,0.0206,-0.0181,-0.0370,0.0274,0.0461,0.852,-0.754,-0.557,3.859
5.614,north / forward,0.0528,0.0000,0.4000,0.0528,-0.0000,-0.4000,0.0289,0.0147,0.4361,0.0289,-0.0147,-0.4361,0.0238,-0.0147,-0.0361,0.0280,0.0457,-0.441,-0.695,-0.627,3.869
5.739,north / forward,0.0652,0.0000,0.4000,0.0652,-0.0000,-0.4000,0.0339,0.0125,0.4348,0.0339,-0.0125,-0.4348,0.0312,-0.0125,-0.0348,0.0337,0.0484,-0.704,-0.321,-0.668,3.864
5.812,north / forward,0.0726,0.0000,0.4000,0.0726,-0.0000,-0.4000,0.0430,0.0130,0.4358,0.0430,-0.0130,-0.4358,0.0295,-0.0130,-0.0358,0.0323,0.0482,-0.509,-0.132,-0.808,3.864
5.938,north / forward,0.0852,0.0000,0.4000,0.0852,-0.0000,-0.4000,0.0513,0.0124,0.4354,0.0513,-0.0124,-0.4354,0.0338,-0.0124,-0.0354,0.0360,0.0505,-0.194,-0.003,-0.823,3.864
6.012,north / forward,0.0925,0.0000,0.4000,0.0925,-0.0000,-0.4000,0.0580,0.0105,0.4342,0.0580,-0.0105,-0.4342,0.0345,-0.0105,-0.0342,0.0360,0.0497,0.229,0.224,-0.837,3.864
6.145,north / forward,0.1058,0.0000,0.4000,0.1058,-0.0000,-0.4000,0.0648,0.0106,0.4337,0.0648,-0.0106,-0.4337,0.0411,-0.0106,-0.0337,0.0424,0.0542,0.321,0.152,-0.799,3.859
6.216,north / forward,0.1129,0.0000,0.4000,0.1129,-0.0000,-0.4000,0.0701,0.0062,0.4337,0.0701,-0.0062,-0.4337,0.0428,-0.0062,-0.0337,0.0433,0.0549,0.107,-0.032,-0.820,3.864
6.311,north / forward,0.1225,0.0000,0.4000,0.1225,-0.0000,-0.4000,0.0767,0.0020,0.4363,0.0767,-0.0020,-0.4363,0.0457,-0.0020,-0.0363,0.0458,0.0584,-0.399,-0.263,-0.912,3.864
6.412,north / forward,0.1326,0.0000,0.4000,0.1326,-0.0000,-0.4000,0.0839,0.0015,0.4335,0.0839,-0.0015,-0.4335,0.0487,-0.0015,-0.0335,0.0487,0.0592,-0.598,-0.213,-0.920,3.864
6.512,north / forward,0.1425,0.0000,0.4000,0.1425,-0.0000,-0.4000,0.0922,0.0077,0.4328,0.0922,-0.0077,-0.4328,0.0503,-0.0077,-0.0328,0.0509,0.0606,-0.634,-0.351,-0.896,3.859
6.617,north / forward,0.1531,0.0000,0.4000,0.1531,-0.0000,-0.4000,0.1057,0.0158,0.4325,0.1057,-0.0158,-0.4325,0.0473,-0.0158,-0.0325,0.0499,0.0596,0.467,0.137,-0.801,3.859
6.712,north / forward,0.1625,0.0000,0.4000,0.1625,-0.0000,-0.4000,0.1143,0.0198,0.4313,0.1143,-0.0198,-0.4313,0.0482,-0.0198,-0.0313,0.0521,0.0608,1.072,0.203,-0.761,3.864
6.827,north / forward,0.1741,0.0000,0.4000,0.1741,-0.0000,-0.4000,0.1222,0.0189,0.4298,0.1222,-0.0189,-0.4298,0.0519,-0.0189,-0.0298,0.0552,0.0627,1.145,0.646,-0.808,3.853
6.912,north / forward,0.1825,0.0000,0.4000,0.1825,-0.0000,-0.4000,0.1297,0.0181,0.4298,0.1297,-0.0181,-0.4298,0.0529,-0.0181,-0.0298,0.0559,0.0633,1.020,0.408,-0.851,3.853
7.023,north / forward,0.1936,0.0000,0.4000,0.1936,-0.0000,-0.4000,0.1395,0.0181,0.4309,0.1395,-0.0181,-0.4309,0.0541,-0.0181,-0.0309,0.0570,0.0648,0.181,0.094,-0.904,3.864
7.112,north / forward,0.2025,0.0000,0.4000,0.2025,-0.0000,-0.4000,0.1493,0.0224,0.4319,0.1493,-0.0224,-0.4319,0.0532,-0.0224,-0.0319,0.0577,0.0659,0.097,-0.121,-0.919,3.859
7.234,north / forward,0.2147,0.0000,0.4000,0.2147,-0.0000,-0.4000,0.1573,0.0250,0.4305,0.1573,-0.0250,-0.4305,0.0574,-0.0250,-0.0305,0.0627,0.0697,0.205,-0.040,-0.940,3.859
7.325,north / forward,0.2239,0.0000,0.4000,0.2239,-0.0000,-0.4000,0.1686,0.0285,0.4305,0.1686,-0.0285,-0.4305,0.0553,-0.0285,-0.0305,0.0622,0.0693,0.651,0.119,-0.937,3.859
7.436,north / forward,0.2349,0.0000,0.4000,0.2349,-0.0000,-0.4000,0.1810,0.0263,0.4318,0.1810,-0.0263,-0.4318,0.0539,-0.0263,-0.0318,0.0600,0.0679,0.928,-0.077,-1.002,3.859
7.512,north / forward,0.2425,0.0000,0.4000,0.2425,-0.0000,-0.4000,0.1878,0.0246,0.4308,0.1878,-0.0246,-0.4308,0.0547,-0.0246,-0.0308,0.0600,0.0674,0.708,0.554,-0.863,3.859
7.647,north / forward,0.2560,0.0000,0.4000,0.2560,-0.0000,-0.4000,0.1926,0.0197,0.4297,0.1926,-0.0197,-0.4297,0.0634,-0.0197,-0.0297,0.0664,0.0728,0.428,0.675,-0.646,3.859
7.711,north / forward,0.2625,0.0000,0.4000,0.2625,-0.0000,-0.4000,0.1986,0.0198,0.4305,0.1986,-0.0198,-0.4305,0.0638,-0.0198,-0.0305,0.0669,0.0735,-0.488,-0.121,-0.388,3.859
7.812,north / forward,0.2725,0.0000,0.4000,0.2725,-0.0000,-0.4000,0.2074,0.0229,0.4294,0.2074,-0.0229,-0.4294,0.0651,-0.0229,-0.0294,0.0690,0.0750,-0.254,-0.518,-0.187,3.859
7.928,north / forward,0.2841,0.0000,0.4000,0.2841,-0.0000,-0.4000,0.2161,0.0296,0.4250,0.2161,-0.0296,-0.4250,0.0680,-0.0296,-0.0250,0.0742,0.0783,0.146,-0.645,0.013,3.853
8.021,north / forward,0.2935,0.0000,0.4000,0.2935,-0.0000,-0.4000,0.2261,0.0310,0.4238,0.2261,-0.0310,-0.4238,0.0673,-0.0310,-0.0238,0.0741,0.0779,1.020,-0.261,0.264,3.853
8.146,north / forward,0.3059,0.0000,0.4000,0.3059,-0.0000,-0.4000,0.2414,0.0293,0.4246,0.2414,-0.0293,-0.4246,0.0645,-0.0293,-0.0246,0.0709,0.0750,1.134,-0.202,0.391,3.853
8.229,north / forward,0.3142,0.0000,0.4000,0.3142,-0.0000,-0.4000,0.2548,0.0279,0.4249,0.2548,-0.0279,-0.4249,0.0594,-0.0279,-0.0249,0.0656,0.0702,0.786,0.410,0.426,3.859
8.315,north / forward,0.3228,0.0000,0.4000,0.3228,-0.0000,-0.4000,0.2665,0.0251,0.4267,0.2665,-0.0251,-0.4267,0.0563,-0.0251,-0.0267,0.0616,0.0672,0.412,0.778,0.512,3.859
8.422,north / forward,0.3335,0.0000,0.4000,0.3335,-0.0000,-0.4000,0.2780,0.0205,0.4274,0.2780,-0.0205,-0.4274,0.0555,-0.0205,-0.0274,0.0592,0.0652,-0.032,1.183,0.572,3.853
8.513,north / forward,0.3426,0.0000,0.4000,0.3426,-0.0000,-0.4000,0.2889,0.0198,0.4246,0.2889,-0.0198,-0.4246,0.0537,-0.0198,-0.0246,0.0573,0.0623,-0.328,0.661,0.728,3.853
8.610,north / forward,0.3524,0.0000,0.4000,0.3524,-0.0000,-0.4000,0.2991,0.0201,0.4216,0.2991,-0.0201,-0.4216,0.0532,-0.0201,-0.0216,0.0569,0.0608,-0.277,0.505,0.831,3.843
8.723,north / forward,0.3637,0.0000,0.4000,0.3637,-0.0000,-0.4000,0.3092,0.0207,0.4223,0.3092,-0.0207,-0.4223,0.0544,-0.0207,-0.0223,0.0582,0.0623,-0.034,0.362,0.861,3.853
8.810,north / forward,0.3724,0.0000,0.4000,0.3724,-0.0000,-0.4000,0.3202,0.0210,0.4230,0.3202,-0.0210,-0.4230,0.0522,-0.0210,-0.0230,0.0563,0.0608,0.551,0.786,0.879,3.859
8.919,north / forward,0.3833,0.0000,0.4000,0.3833,-0.0000,-0.4000,0.3296,0.0186,0.4216,0.3296,-0.0186,-0.4216,0.0537,-0.0186,-0.0216,0.0568,0.0608,0.387,0.584,1.086,3.853
9.011,north / forward,0.3924,0.0000,0.4000,0.3924,-0.0000,-0.4000,0.3378,0.0169,0.4201,0.3378,-0.0169,-0.4201,0.0546,-0.0169,-0.0201,0.0571,0.0606,0.153,0.634,1.408,3.848
9.116,north / forward,0.4030,0.0000,0.4000,0.4030,-0.0000,-0.4000,0.3473,0.0161,0.4196,0.3473,-0.0161,-0.4196,0.0556,-0.0161,-0.0196,0.0579,0.0611,-0.046,0.367,1.788,3.848
9.211,north / forward,0.4124,0.0000,0.4000,0.4124,-0.0000,-0.4000,0.3546,0.0134,0.4201,0.3546,-0.0134,-0.4201,0.0578,-0.0134,-0.0201,0.0593,0.0626,0.181,0.340,2.227,3.853
9.315,north / forward,0.4228,0.0000,0.4000,0.4228,-0.0000,-0.4000,0.3661,0.0120,0.4209,0.3661,-0.0120,-0.4209,0.0567,-0.0120,-0.0209,0.0579,0.0616,0.006,0.185,2.592,3.859
9.410,north / forward,0.4324,0.0000,0.4000,0.4324,-0.0000,-0.4000,0.3734,0.0096,0.4211,0.3734,-0.0096,-0.4211,0.0590,-0.0096,-0.0211,0.0598,0.0634,-0.075,0.244,2.674,3.848
9.515,north / forward,0.4429,0.0000,0.4000,0.4429,-0.0000,-0.4000,0.3853,0.0134,0.4193,0.3853,-0.0134,-0.4193,0.0576,-0.0134,-0.0193,0.0591,0.0622,-0.153,-0.040,2.452,3.848
9.610,north / forward,0.4523,0.0000,0.4000,0.4523,-0.0000,-0.4000,0.3928,0.0177,0.4182,0.3928,-0.0177,-0.4182,0.0596,-0.0177,-0.0182,0.0622,0.0648,0.246,0.266,1.938,3.848
9.716,north / forward,0.4629,0.0000,0.4000,0.4629,-0.0000,-0.4000,0.4045,0.0184,0.4179,0.4045,-0.0184,-0.4179,0.0584,-0.0184,-0.0179,0.0612,0.0638,0.809,0.343,1.434,3.848
9.811,north / forward,0.4724,0.0000,0.4000,0.4724,-0.0000,-0.4000,0.4183,0.0156,0.4182,0.4183,-0.0156,-0.4182,0.0541,-0.0156,-0.0182,0.0563,0.0592,0.930,0.242,1.109,3.848
9.918,north / forward,0.4832,0.0000,0.4000,0.4832,-0.0000,-0.4000,0.4271,0.0120,0.4187,0.4271,-0.0120,-0.4187,0.0561,-0.0120,-0.0187,0.0574,0.0603,0.732,0.557,0.892,3.848
10.010,north / forward,0.4923,0.0000,0.4000,0.4923,-0.0000,-0.4000,0.4367,0.0082,0.4197,0.4367,-0.0082,-0.4197,0.0556,-0.0082,-0.0197,0.0562,0.0595,-0.125,0.636,0.641,3.853
10.124,north / forward,0.5000,0.0000,0.4000,0.5000,-0.0000,-0.4000,0.4453,0.0057,0.4217,0.4453,-0.0057,-0.4217,0.0547,-0.0057,-0.0217,0.0550,0.0591,-0.348,0.556,0.531,3.859
10.210,north / forward,0.5000,0.0000,0.4000,0.5000,-0.0000,-0.4000,0.4553,0.0054,0.4212,0.4553,-0.0054,-0.4212,0.0447,-0.0054,-0.0212,0.0450,0.0498,-0.398,0.595,0.547,3.853
10.318,north / forward,0.5000,0.0000,0.4000,0.5000,-0.0000,-0.4000,0.4661,0.0052,0.4205,0.4661,-0.0052,-0.4205,0.0339,-0.0052,-0.0205,0.0343,0.0400,-0.165,0.163,0.602,3.853
10.428,north / forward hover,0.5000,0.0000,0.4000,0.5000,-0.0000,-0.4000,0.4773,0.0055,0.4195,0.4773,-0.0055,-0.4195,0.0227,-0.0055,-0.0195,0.0233,0.0304,-0.049,0.518,0.899,3.848
10.528,north / forward hover,0.5000,0.0000,0.4000,0.5000,-0.0000,-0.4000,0.4870,0.0051,0.4187,0.4870,-0.0051,-0.4187,0.0130,-0.0051,-0.0187,0.0139,0.0233,-0.247,1.074,1.380,3.848
10.638,north / forward hover,0.5000,0.0000,0.4000,0.5000,-0.0000,-0.4000,0.4945,0.0027,0.4163,0.4945,-0.0027,-0.4163,0.0055,-0.0027,-0.0163,0.0061,0.0174,-0.439,1.404,1.910,3.848
10.710,north / forward hover,0.5000,0.0000,0.4000,0.5000,-0.0000,-0.4000,0.4941,0.0054,0.4171,0.4941,-0.0054,-0.4171,0.0059,-0.0054,-0.0171,0.0080,0.0188,-0.563,1.774,2.402,3.848
10.843,north / forward hover,0.5000,0.0000,0.4000,0.5000,-0.0000,-0.4000,0.4957,0.0087,0.4177,0.4957,-0.0087,-0.4177,0.0043,-0.0087,-0.0177,0.0097,0.0202,-0.526,0.931,2.746,3.848
10.911,north / forward hover,0.5000,0.0000,0.4000,0.5000,-0.0000,-0.4000,0.4949,0.0109,0.4185,0.4949,-0.0109,-0.4185,0.0051,-0.0109,-0.0185,0.0120,0.0221,0.684,0.289,3.037,3.848
11.038,north / forward hover,0.5000,0.0000,0.4000,0.5000,-0.0000,-0.4000,0.4987,0.0061,0.4173,0.4987,-0.0061,-0.4173,0.0013,-0.0061,-0.0173,0.0063,0.0184,0.868,-0.248,3.486,3.838
11.110,north / forward hover,0.5000,0.0000,0.4000,0.5000,-0.0000,-0.4000,0.5079,0.0020,0.4171,0.5079,-0.0020,-0.4171,-0.0079,-0.0020,-0.0171,0.0082,0.0189,0.164,-0.145,3.877,3.848
11.256,north / forward hover,0.5000,0.0000,0.4000,0.5000,-0.0000,-0.4000,0.5163,-0.0011,0.4171,0.5163,0.0011,-0.4171,-0.0163,0.0011,-0.0171,0.0163,0.0237,-0.346,0.393,4.053,3.843
11.311,north / forward hover,0.5000,0.0000,0.4000,0.5000,-0.0000,-0.4000,0.5242,-0.0035,0.4177,0.5242,0.0035,-0.4177,-0.0242,0.0035,-0.0177,0.0245,0.0302,-0.598,1.121,4.021,3.848
11.438,north / forward hover,0.5000,0.0000,0.4000,0.5000,-0.0000,-0.4000,0.5278,-0.0022,0.4172,0.5278,0.0022,-0.4172,-0.0278,0.0022,-0.0172,0.0279,0.0328,-0.621,1.775,3.924,3.848
11.511,north / forward hover,0.5000,0.0000,0.4000,0.5000,-0.0000,-0.4000,0.5277,0.0008,0.4161,0.5277,-0.0008,-0.4161,-0.0277,-0.0008,-0.0161,0.0277,0.0321,-0.428,1.774,3.726,3.843
11.629,east / right,0.5000,-0.0077,0.4000,0.5000,0.0077,-0.4000,0.5280,0.0012,0.4156,0.5280,-0.0012,-0.4156,-0.0280,-0.0089,-0.0156,0.0293,0.0332,0.203,1.538,3.638,3.843
11.712,east / right,0.5000,-0.0161,0.4000,0.5000,0.0161,-0.4000,0.5256,0.0039,0.4168,0.5256,-0.0039,-0.4168,-0.0256,-0.0200,-0.0168,0.0325,0.0366,-0.125,0.910,3.734,3.843
11.815,east / right,0.5000,-0.0263,0.4000,0.5000,0.0263,-0.4000,0.5224,0.0050,0.4162,0.5224,-0.0050,-0.4162,-0.0224,-0.0314,-0.0162,0.0385,0.0418,0.224,0.182,3.915,3.848
11.914,east / right,0.5000,-0.0363,0.4000,0.5000,0.0363,-0.4000,0.5277,0.0077,0.4133,0.5277,-0.0077,-0.4133,-0.0277,-0.0439,-0.0133,0.0519,0.0536,0.553,-0.233,4.031,3.843
12.019,east / right,0.5000,-0.0467,0.4000,0.5000,0.0467,-0.4000,0.5328,0.0044,0.4120,0.5328,-0.0044,-0.4120,-0.0328,-0.0511,-0.0120,0.0607,0.0619,1.093,-0.044,3.950,3.838
12.114,east / right,0.5000,-0.0562,0.4000,0.5000,0.0562,-0.4000,0.5365,-0.0029,0.4093,0.5365,0.0029,-0.4093,-0.0365,-0.0533,-0.0093,0.0646,0.0653,1.326,1.134,3.901,3.832
12.227,east / right,0.5000,-0.0676,0.4000,0.5000,0.0676,-0.4000,0.5371,-0.0101,0.4093,0.5371,0.0101,-0.4093,-0.0371,-0.0574,-0.0093,0.0683,0.0690,0.369,1.574,4.068,3.838
12.316,east / right,0.5000,-0.0764,0.4000,0.5000,0.0764,-0.4000,0.5353,-0.0164,0.4097,0.5353,0.0164,-0.4097,-0.0353,-0.0601,-0.0097,0.0697,0.0703,-0.224,1.284,4.460,3.832
12.421,east / right,0.5000,-0.0870,0.4000,0.5000,0.0870,-0.4000,0.5311,-0.0178,0.4086,0.5311,0.0178,-0.4086,-0.0311,-0.0692,-0.0086,0.0758,0.0763,-0.551,0.554,4.898,3.832
12.518,east / right,0.5000,-0.0966,0.4000,0.5000,0.0966,-0.4000,0.5285,-0.0147,0.4083,0.5285,0.0147,-0.4083,-0.0285,-0.0819,-0.0083,0.0867,0.0871,-0.195,0.446,5.319,3.827
12.629,east / right,0.5000,-0.1077,0.4000,0.5000,0.1077,-0.4000,0.5288,-0.0110,0.4083,0.5288,0.0110,-0.4083,-0.0288,-0.0968,-0.0083,0.1009,0.1013,1.024,0.100,5.576,3.832
12.710,east / right,0.5000,-0.1159,0.4000,0.5000,0.1159,-0.4000,0.5305,-0.0127,0.4089,0.5305,0.0127,-0.4089,-0.0305,-0.1032,-0.0089,0.1076,0.1080,2.166,0.630,5.679,3.832
12.841,east / right,0.5000,-0.1289,0.4000,0.5000,0.1289,-0.4000,0.5326,-0.0170,0.4087,0.5326,0.0170,-0.4087,-0.0326,-0.1119,-0.0087,0.1165,0.1168,2.402,0.998,5.720,3.832
12.910,east / right,0.5000,-0.1358,0.4000,0.5000,0.1358,-0.4000,0.5326,-0.0254,0.4084,0.5326,0.0254,-0.4084,-0.0326,-0.1104,-0.0084,0.1151,0.1154,1.794,1.116,5.769,3.827
13.044,east / right,0.5000,-0.1492,0.4000,0.5000,0.1492,-0.4000,0.5305,-0.0326,0.4085,0.5305,0.0326,-0.4085,-0.0305,-0.1166,-0.0085,0.1205,0.1208,1.107,0.986,5.766,3.827
13.109,east / right,0.5000,-0.1558,0.4000,0.5000,0.1558,-0.4000,0.5265,-0.0324,0.4073,0.5265,0.0324,-0.4073,-0.0265,-0.1234,-0.0073,0.1262,0.1264,0.888,0.663,5.587,3.832
13.245,east / right,0.5000,-0.1694,0.4000,0.5000,0.1694,-0.4000,0.5217,-0.0350,0.4060,0.5217,0.0350,-0.4060,-0.0217,-0.1344,-0.0060,0.1361,0.1363,1.205,0.035,5.358,3.832
13.312,east / right,0.5000,-0.1760,0.4000,0.5000,0.1760,-0.4000,0.5252,-0.0398,0.4047,0.5252,0.0398,-0.4047,-0.0252,-0.1362,-0.0047,0.1385,0.1386,2.026,-0.252,5.148,3.832
13.444,east / right,0.5000,-0.1892,0.4000,0.5000,0.1892,-0.4000,0.5365,-0.0386,0.4067,0.5365,0.0386,-0.4067,-0.0365,-0.1506,-0.0067,0.1550,0.1551,2.162,0.001,4.752,3.827
13.510,east / right,0.5000,-0.1959,0.4000,0.5000,0.1959,-0.4000,0.5397,-0.0371,0.4072,0.5397,0.0371,-0.4072,-0.0397,-0.1588,-0.0072,0.1637,0.1638,1.996,1.868,4.083,3.838
13.647,east / right,0.5000,-0.2095,0.4000,0.5000,0.2095,-0.4000,0.5364,-0.0365,0.4059,0.5364,0.0365,-0.4059,-0.0364,-0.1730,-0.0059,0.1768,0.1769,3.400,2.619,3.411,3.832
13.710,east / right,0.5000,-0.2159,0.4000,0.5000,0.2159,-0.4000,0.5292,-0.0430,0.4051,0.5292,0.0430,-0.4051,-0.0292,-0.1729,-0.0051,0.1754,0.1754,3.212,1.536,2.760,3.827
13.809,east / right,0.5000,-0.2257,0.4000,0.5000,0.2257,-0.4000,0.5250,-0.0519,0.4042,0.5250,0.0519,-0.4042,-0.0250,-0.1739,-0.0042,0.1757,0.1757,2.993,0.341,2.150,3.838
13.910,east / right,0.5000,-0.2358,0.4000,0.5000,0.2358,-0.4000,0.5199,-0.0613,0.4039,0.5199,0.0613,-0.4039,-0.0199,-0.1746,-0.0039,0.1757,0.1757,2.549,-0.538,1.320,3.838
14.010,east / right,0.5000,-0.2458,0.4000,0.5000,0.2458,-0.4000,0.5176,-0.0765,0.4029,0.5176,0.0765,-0.4029,-0.0176,-0.1693,-0.0029,0.1702,0.1702,2.188,-0.578,0.262,3.832
14.116,east / right,0.5000,-0.2564,0.4000,0.5000,0.2564,-0.4000,0.5164,-0.0888,0.4017,0.5164,0.0888,-0.4017,-0.0164,-0.1676,-0.0017,0.1684,0.1685,2.087,-0.379,-0.737,3.838
14.210,east / right,0.5000,-0.2658,0.4000,0.5000,0.2658,-0.4000,0.5164,-0.1019,0.4011,0.5164,0.1019,-0.4011,-0.0164,-0.1639,-0.0011,0.1648,0.1648,1.410,-0.181,-1.467,3.832
14.324,east / right,0.5000,-0.2772,0.4000,0.5000,0.2772,-0.4000,0.5149,-0.1183,0.4024,0.5149,0.1183,-0.4024,-0.0149,-0.1589,-0.0024,0.1596,0.1596,1.393,0.020,-1.866,3.838
14.410,east / right,0.5000,-0.2858,0.4000,0.5000,0.2858,-0.4000,0.5151,-0.1319,0.4041,0.5151,0.1319,-0.4041,-0.0151,-0.1539,-0.0041,0.1546,0.1546,0.572,0.197,-1.976,3.838
14.514,east / right,0.5000,-0.2962,0.4000,0.5000,0.2962,-0.4000,0.5144,-0.1475,0.4017,0.5144,0.1475,-0.4017,-0.0144,-0.1487,-0.0017,0.1494,0.1494,0.321,0.240,-2.041,3.832
14.609,east / right,0.5000,-0.3057,0.4000,0.5000,0.3057,-0.4000,0.5153,-0.1608,0.3999,0.5153,0.1608,-0.3999,-0.0153,-0.1449,0.0001,0.1457,0.1457,0.456,0.285,-2.110,3.827
14.729,east / right,0.5000,-0.3177,0.4000,0.5000,0.3177,-0.4000,0.5129,-0.1765,0.3976,0.5129,0.1765,-0.3976,-0.0129,-0.1412,0.0024,0.1418,0.1418,0.633,0.363,-2.680,3.832
14.809,east / right,0.5000,-0.3257,0.4000,0.5000,0.3257,-0.4000,0.5125,-0.1888,0.4001,0.5125,0.1888,-0.4001,-0.0125,-0.1369,-0.0001,0.1375,0.1375,0.950,0.165,-3.577,3.838
14.924,east / right,0.5000,-0.3373,0.4000,0.5000,0.3373,-0.4000,0.5127,-0.2015,0.4014,0.5127,0.2015,-0.4014,-0.0127,-0.1357,-0.0014,0.1363,0.1363,0.673,0.161,-4.585,3.838
15.009,east / right,0.5000,-0.3457,0.4000,0.5000,0.3457,-0.4000,0.5127,-0.2142,0.4026,0.5127,0.2142,-0.4026,-0.0127,-0.1315,-0.0026,0.1321,0.1321,1.602,0.414,-5.238,3.827
15.128,east / right,0.5000,-0.3577,0.4000,0.5000,0.3577,-0.4000,0.5101,-0.2242,0.4033,0.5101,0.2242,-0.4033,-0.0101,-0.1334,-0.0033,0.1338,0.1339,1.142,0.348,-5.325,3.832
15.209,east / right,0.5000,-0.3657,0.4000,0.5000,0.3657,-0.4000,0.5087,-0.2323,0.4053,0.5087,0.2323,-0.4053,-0.0087,-0.1334,-0.0053,0.1337,0.1338,0.976,-0.036,-5.299,3.838
15.323,east / right,0.5000,-0.3771,0.4000,0.5000,0.3771,-0.4000,0.5058,-0.2487,0.4077,0.5058,0.2487,-0.4077,-0.0058,-0.1285,-0.0077,0.1286,0.1288,1.048,-0.427,-5.290,3.838
15.408,east / right,0.5000,-0.3857,0.4000,0.5000,0.3857,-0.4000,0.5063,-0.2603,0.4076,0.5063,0.2603,-0.4076,-0.0063,-0.1254,-0.0076,0.1255,0.1258,0.926,-0.483,-5.260,3.838
15.523,east / right,0.5000,-0.3972,0.4000,0.5000,0.3972,-0.4000,0.5074,-0.2719,0.4054,0.5074,0.2719,-0.4054,-0.0074,-0.1253,-0.0054,0.1255,0.1256,0.159,-0.224,-5.468,3.827
15.615,east / right,0.5000,-0.4063,0.4000,0.5000,0.4063,-0.4000,0.5071,-0.2897,0.4026,0.5071,0.2897,-0.4026,-0.0071,-0.1166,-0.0026,0.1168,0.1168,1.057,0.597,-5.707,3.827
15.715,east / right,0.5000,-0.4163,0.4000,0.5000,0.4163,-0.4000,0.5071,-0.3039,0.4022,0.5071,0.3039,-0.4022,-0.0071,-0.1124,-0.0022,0.1126,0.1126,0.590,0.869,-5.878,3.827
15.812,east / right,0.5000,-0.4261,0.4000,0.5000,0.4261,-0.4000,0.5002,-0.3223,0.4006,0.5002,0.3223,-0.4006,-0.0002,-0.1038,-0.0006,0.1038,0.1038,-0.194,0.314,-5.684,3.832
15.916,east / right,0.5000,-0.4365,0.4000,0.5000,0.4365,-0.4000,0.4991,-0.3380,0.4006,0.4991,0.3380,-0.4006,0.0009,-0.0985,-0.0006,0.0985,0.0985,-0.570,-0.366,-5.218,3.832
16.017,east / right,0.5000,-0.4465,0.4000,0.5000,0.4465,-0.4000,0.5025,-0.3478,0.4006,0.5025,0.3478,-0.4006,-0.0025,-0.0987,-0.0006,0.0987,0.0987,-1.237,-1.243,-4.561,3.827
16.127,east / right,0.5000,-0.4575,0.4000,0.5000,0.4575,-0.4000,0.5124,-0.3555,0.3998,0.5124,0.3555,-0.3998,-0.0124,-0.1020,0.0002,0.1027,0.1027,-1.225,-0.835,-3.760,3.827
16.221,east / right,0.5000,-0.4670,0.4000,0.5000,0.4670,-0.4000,0.5217,-0.3632,0.4003,0.5217,0.3632,-0.4003,-0.0217,-0.1037,-0.0003,0.1060,0.1060,-0.445,0.272,-2.845,3.832
16.324,east / right,0.5000,-0.4773,0.4000,0.5000,0.4773,-0.4000,0.5251,-0.3696,0.4010,0.5251,0.3696,-0.4010,-0.0251,-0.1077,-0.0010,0.1106,0.1106,0.396,1.359,-2.002,3.832
16.422,east / right,0.5000,-0.4871,0.4000,0.5000,0.4871,-0.4000,0.5294,-0.3809,0.4026,0.5294,0.3809,-0.4026,-0.0294,-0.1062,-0.0026,0.1102,0.1102,0.816,2.036,-1.352,3.827
16.527,east / right,0.5000,-0.4975,0.4000,0.5000,0.4975,-0.4000,0.5301,-0.3929,0.4040,0.5301,0.3929,-0.4040,-0.0301,-0.1045,-0.0040,0.1088,0.1089,0.553,1.579,-0.746,3.832
16.621,east / right,0.5000,-0.5000,0.4000,0.5000,0.5000,-0.4000,0.5281,-0.4045,0.4023,0.5281,0.4045,-0.4023,-0.0281,-0.0955,-0.0023,0.0995,0.0996,0.346,1.016,-0.456,3.827
16.726,east / right,0.5000,-0.5000,0.4000,0.5000,0.5000,-0.4000,0.5261,-0.4251,0.4005,0.5261,0.4251,-0.4005,-0.0261,-0.0749,-0.0005,0.0794,0.0794,0.621,0.610,-0.260,3.822
16.824,east / right,0.5000,-0.5000,0.4000,0.5000,0.5000,-0.4000,0.5260,-0.4400,0.4012,0.5260,0.4400,-0.4012,-0.0260,-0.0600,-0.0012,0.0654,0.0654,-0.062,0.144,-0.056,3.827
16.919,east / right hover,0.5000,-0.5000,0.4000,0.5000,0.5000,-0.4000,0.5271,-0.4525,0.4032,0.5271,0.4525,-0.4032,-0.0271,-0.0475,-0.0032,0.0547,0.0548,-1.418,-0.360,0.551,3.832
17.009,east / right hover,0.5000,-0.5000,0.4000,0.5000,0.5000,-0.4000,0.5316,-0.4602,0.4025,0.5316,0.4602,-0.4025,-0.0316,-0.0398,-0.0025,0.0508,0.0509,-2.067,-0.226,1.298,3.822
17.116,east / right hover,0.5000,-0.5000,0.4000,0.5000,0.5000,-0.4000,0.5347,-0.4666,0.4021,0.5347,0.4666,-0.4021,-0.0347,-0.0334,-0.0021,0.0481,0.0482,-1.320,0.573,1.844,3.822
17.209,east / right hover,0.5000,-0.5000,0.4000,0.5000,0.5000,-0.4000,0.5335,-0.4714,0.4041,0.5335,0.4714,-0.4041,-0.0335,-0.0286,-0.0041,0.0440,0.0442,-0.862,1.284,2.377,3.827
17.335,east / right hover,0.5000,-0.5000,0.4000,0.5000,0.5000,-0.4000,0.5291,-0.4760,0.4067,0.5291,0.4760,-0.4067,-0.0291,-0.0240,-0.0067,0.0377,0.0383,-0.775,0.788,2.919,3.832
17.409,east / right hover,0.5000,-0.5000,0.4000,0.5000,0.5000,-0.4000,0.5247,-0.4789,0.4087,0.5247,0.4789,-0.4087,-0.0247,-0.0211,-0.0087,0.0325,0.0336,-0.603,0.257,3.217,3.832
17.525,east / right hover,0.5000,-0.5000,0.4000,0.5000,0.5000,-0.4000,0.5197,-0.4815,0.4073,0.5197,0.4815,-0.4073,-0.0197,-0.0185,-0.0073,0.0270,0.0280,-0.051,-0.215,3.249,3.827
17.608,east / right hover,0.5000,-0.5000,0.4000,0.5000,0.5000,-0.4000,0.5190,-0.4845,0.4060,0.5190,0.4845,-0.4060,-0.0190,-0.0155,-0.0060,0.0245,0.0252,0.205,-0.127,3.175,3.822
17.732,east / right hover,0.5000,-0.5000,0.4000,0.5000,0.5000,-0.4000,0.5230,-0.4885,0.4050,0.5230,0.4885,-0.4050,-0.0230,-0.0115,-0.0050,0.0257,0.0261,0.344,0.126,2.837,3.827
17.808,east / right hover,0.5000,-0.5000,0.4000,0.5000,0.5000,-0.4000,0.5258,-0.5015,0.4044,0.5258,0.5015,-0.4044,-0.0258,0.0015,-0.0044,0.0259,0.0263,0.121,0.961,2.358,3.827
17.914,east / right hover,0.5000,-0.5000,0.4000,0.5000,0.5000,-0.4000,0.5238,-0.5048,0.4053,0.5238,0.5048,-0.4053,-0.0238,0.0048,-0.0053,0.0243,0.0249,-0.728,1.285,2.092,3.827
18.034,south / back,0.4959,-0.5000,0.4000,0.4959,0.5000,-0.4000,0.5213,-0.5029,0.4050,0.5213,0.5029,-0.4050,-0.0254,0.0029,-0.0050,0.0256,0.0261,-1.668,0.741,1.843,3.827
18.108,south / back,0.4885,-0.5000,0.4000,0.4885,0.5000,-0.4000,0.5233,-0.4954,0.4037,0.5233,0.4954,-0.4037,-0.0348,-0.0046,-0.0037,0.0351,0.0353,-0.769,0.218,1.758,3.822
18.244,south / back,0.4750,-0.5000,0.4000,0.4750,0.5000,-0.4000,0.5239,-0.4918,0.4016,0.5239,0.4918,-0.4016,-0.0489,-0.0082,-0.0016,0.0496,0.0496,0.067,0.031,1.726,3.816
18.309,south / back,0.4684,-0.5000,0.4000,0.4684,0.5000,-0.4000,0.5254,-0.4889,0.4020,0.5254,0.4889,-0.4020,-0.0570,-0.0111,-0.0020,0.0580,0.0580,0.883,0.518,1.733,3.822
18.440,south / back,0.4553,-0.5000,0.4000,0.4553,0.5000,-0.4000,0.5234,-0.4940,0.4030,0.5234,0.4940,-0.4030,-0.0680,-0.0060,-0.0030,0.0683,0.0684,1.109,1.263,1.662,3.822
18.509,south / back,0.4485,-0.5000,0.4000,0.4485,0.5000,-0.4000,0.5170,-0.4950,0.4032,0.5170,0.4950,-0.4032,-0.0685,-0.0050,-0.0032,0.0687,0.0688,0.578,1.454,1.605,3.822
18.644,south / back,0.4349,-0.5000,0.4000,0.4349,0.5000,-0.4000,0.5100,-0.4974,0.4031,0.5100,0.4974,-0.4031,-0.0751,-0.0026,-0.0031,0.0752,0.0752,-0.162,1.380,1.555,3.827
18.710,south / back,0.4283,-0.5000,0.4000,0.4283,0.5000,-0.4000,0.5020,-0.4952,0.4033,0.5020,0.4952,-0.4033,-0.0737,-0.0048,-0.0033,0.0738,0.0739,-0.501,0.781,1.529,3.827
18.831,south / back,0.4162,-0.5000,0.4000,0.4162,0.5000,-0.4000,0.4968,-0.4908,0.4050,0.4968,0.4908,-0.4050,-0.0806,-0.0092,-0.0050,0.0811,0.0812,-0.321,0.023,1.621,3.827
18.909,south / back,0.4085,-0.5000,0.4000,0.4085,0.5000,-0.4000,0.4919,-0.4851,0.4048,0.4919,0.4851,-0.4048,-0.0834,-0.0149,-0.0048,0.0847,0.0849,-0.018,0.258,1.611,3.822
19.033,south / back,0.3960,-0.5000,0.4000,0.3960,0.5000,-0.4000,0.4855,-0.4812,0.4049,0.4855,0.4812,-0.4049,-0.0895,-0.0188,-0.0049,0.0915,0.0916,0.700,0.528,1.617,3.822
19.109,south / back,0.3884,-0.5000,0.4000,0.3884,0.5000,-0.4000,0.4781,-0.4824,0.4033,0.4781,0.4824,-0.4033,-0.0897,-0.0176,-0.0033,0.0914,0.0914,0.931,1.105,1.622,3.822
19.231,south / back,0.3762,-0.5000,0.4000,0.3762,0.5000,-0.4000,0.4677,-0.4846,0.4034,0.4677,0.4846,-0.4034,-0.0915,-0.0154,-0.0034,0.0928,0.0928,0.574,0.881,1.503,3.822
19.310,south / back,0.3684,-0.5000,0.4000,0.3684,0.5000,-0.4000,0.4549,-0.4852,0.4018,0.4549,0.4852,-0.4018,-0.0865,-0.0148,-0.0018,0.0878,0.0878,0.297,0.662,1.415,3.822
19.434,south / back,0.3559,-0.5000,0.4000,0.3559,0.5000,-0.4000,0.4443,-0.4822,0.4022,0.4443,0.4822,-0.4022,-0.0884,-0.0178,-0.0022,0.0902,0.0902,0.047,0.217,1.510,3.816
19.508,south / back,0.3485,-0.5000,0.4000,0.3485,0.5000,-0.4000,0.4372,-0.4755,0.4014,0.4372,0.4755,-0.4014,-0.0887,-0.0245,-0.0014,0.0921,0.0921,0.014,0.084,1.434,3.822
19.632,south / back,0.3361,-0.5000,0.4000,0.3361,0.5000,-0.4000,0.4311,-0.4718,0.4010,0.4311,0.4718,-0.4010,-0.0950,-0.0282,-0.0010,0.0991,0.0991,1.040,-0.084,1.302,3.822
19.709,south / back,0.3284,-0.5000,0.4000,0.3284,0.5000,-0.4000,0.4230,-0.4713,0.4013,0.4230,0.4713,-0.4013,-0.0946,-0.0287,-0.0013,0.0988,0.0988,1.403,0.554,1.001,3.822
19.833,south / back,0.3160,-0.5000,0.4000,0.3160,0.5000,-0.4000,0.4164,-0.4720,0.4017,0.4164,0.4720,-0.4017,-0.1003,-0.0280,-0.0017,0.1042,0.1042,1.457,1.223,0.384,3.822
19.909,south / back,0.3085,-0.5000,0.4000,0.3085,0.5000,-0.4000,0.4092,-0.4767,0.3992,0.4092,0.4767,-0.3992,-0.1008,-0.0233,0.0008,0.1034,0.1034,1.279,1.176,-0.247,3.822
20.028,south / back,0.2966,-0.5000,0.4000,0.2966,0.5000,-0.4000,0.3994,-0.4801,0.4018,0.3994,0.4801,-0.4018,-0.1028,-0.0199,-0.0018,0.1047,0.1047,0.672,1.123,-0.934,3.827
20.121,south / back,0.2872,-0.5000,0.4000,0.2872,0.5000,-0.4000,0.3872,-0.4796,0.4021,0.3872,0.4796,-0.4021,-0.1000,-0.0204,-0.0021,0.1020,0.1021,0.006,1.139,-1.468,3.822
20.225,south / back,0.2768,-0.5000,0.4000,0.2768,0.5000,-0.4000,0.3678,-0.4798,0.4032,0.3678,0.4798,-0.4032,-0.0910,-0.0202,-0.0032,0.0932,0.0933,0.092,0.411,-1.792,3.822
20.319,south / back,0.2674,-0.5000,0.4000,0.2674,0.5000,-0.4000,0.3528,-0.4810,0.4035,0.3528,0.4810,-0.4035,-0.0854,-0.0190,-0.0035,0.0875,0.0876,0.366,-0.202,-1.870,3.816
20.425,south / back,0.2568,-0.5000,0.4000,0.2568,0.5000,-0.4000,0.3412,-0.4820,0.4044,0.3412,0.4820,-0.4044,-0.0844,-0.0180,-0.0044,0.0863,0.0864,0.285,-1.148,-1.817,3.827
20.521,south / back,0.2472,-0.5000,0.4000,0.2472,0.5000,-0.4000,0.3330,-0.4825,0.4042,0.3330,0.4825,-0.4042,-0.0858,-0.0175,-0.0042,0.0876,0.0877,0.365,-1.060,-1.777,3.822
20.635,south / back,0.2359,-0.5000,0.4000,0.2359,0.5000,-0.4000,0.3297,-0.4860,0.4015,0.3297,0.4860,-0.4015,-0.0939,-0.0140,-0.0015,0.0949,0.0949,0.164,-0.411,-1.809,3.816
20.708,south / back,0.2285,-0.5000,0.4000,0.2285,0.5000,-0.4000,0.3224,-0.4881,0.4004,0.3224,0.4881,-0.4004,-0.0939,-0.0119,-0.0004,0.0946,0.0947,0.023,0.552,-2.003,3.822
20.830,south / back,0.2163,-0.5000,0.4000,0.2163,0.5000,-0.4000,0.3123,-0.4869,0.3998,0.3123,0.4869,-0.3998,-0.0960,-0.0131,0.0002,0.0969,0.0969,0.180,1.234,-2.220,3.816
20.922,south / back,0.2071,-0.5000,0.4000,0.2071,0.5000,-0.4000,0.3043,-0.4860,0.3988,0.3043,0.4860,-0.3988,-0.0972,-0.0140,0.0012,0.0983,0.0983,0.263,1.130,-2.594,3.822
21.032,south / back,0.1962,-0.5000,0.4000,0.1962,0.5000,-0.4000,0.2898,-0.4862,0.4000,0.2898,0.4862,-0.4000,-0.0937,-0.0138,0.0000,0.0947,0.0947,0.445,1.186,-3.040,3.822
21.108,south / back,0.1885,-0.5000,0.4000,0.1885,0.5000,-0.4000,0.2760,-0.4865,0.3979,0.2760,0.4865,-0.3979,-0.0874,-0.0135,0.0021,0.0885,0.0885,0.556,0.535,-3.470,3.822
21.237,south / back,0.1756,-0.5000,0.4000,0.1756,0.5000,-0.4000,0.2641,-0.4875,0.3981,0.2641,0.4875,-0.3981,-0.0885,-0.0125,0.0019,0.0894,0.0894,0.214,-0.325,-3.881,3.816
21.309,south / back,0.1685,-0.5000,0.4000,0.1685,0.5000,-0.4000,0.2529,-0.4886,0.4010,0.2529,0.4886,-0.4010,-0.0845,-0.0114,-0.0010,0.0853,0.0853,0.291,-0.411,-4.113,3.816
21.430,south / back,0.1563,-0.5000,0.4000,0.1563,0.5000,-0.4000,0.2392,-0.4895,0.3992,0.2392,0.4895,-0.3992,-0.0828,-0.0105,0.0008,0.0835,0.0835,0.177,-0.304,-4.434,3.822
21.508,south / back,0.1485,-0.5000,0.4000,0.1485,0.5000,-0.4000,0.2284,-0.4910,0.3972,0.2284,0.4910,-0.3972,-0.0799,-0.0090,0.0028,0.0804,0.0805,-0.062,-0.112,-4.627,3.811
21.627,south / back,0.1367,-0.5000,0.4000,0.1367,0.5000,-0.4000,0.2139,-0.4919,0.3964,0.2139,0.4919,-0.3964,-0.0772,-0.0081,0.0036,0.0776,0.0777,-0.063,-0.351,-4.741,3.811
21.708,south / back,0.1285,-0.5000,0.4000,0.1285,0.5000,-0.4000,0.2020,-0.4901,0.3963,0.2020,0.4901,-0.3963,-0.0734,-0.0099,0.0037,0.0741,0.0742,-0.124,-0.539,-4.803,3.811
21.845,south / back,0.1148,-0.5000,0.4000,0.1148,0.5000,-0.4000,0.1915,-0.4887,0.3966,0.1915,0.4887,-0.3966,-0.0767,-0.0113,0.0034,0.0775,0.0776,0.220,-0.499,-4.737,3.816
21.909,south / back,0.1084,-0.5000,0.4000,0.1084,0.5000,-0.4000,0.1828,-0.4865,0.3988,0.1828,0.4865,-0.3988,-0.0745,-0.0135,0.0012,0.0757,0.0757,0.265,-0.392,-4.668,3.816
22.007,south / back,0.0986,-0.5000,0.4000,0.0986,0.5000,-0.4000,0.1776,-0.4863,0.4016,0.1776,0.4863,-0.4016,-0.0790,-0.0137,-0.0016,0.0801,0.0802,0.541,-0.346,-4.516,3.822
22.109,south / back,0.0885,-0.5000,0.4000,0.0885,0.5000,-0.4000,0.1758,-0.4888,0.4030,0.1758,0.4888,-0.4030,-0.0873,-0.0112,-0.0030,0.0880,0.0881,0.600,-0.009,-4.335,3.816
22.207,south / back,0.0787,-0.5000,0.4000,0.0787,0.5000,-0.4000,0.1717,-0.4920,0.4013,0.1717,0.4920,-0.4013,-0.0930,-0.0080,-0.0013,0.0934,0.0934,0.425,0.814,-4.151,3.816
22.314,south / back,0.0680,-0.5000,0.4000,0.0680,0.5000,-0.4000,0.1631,-0.4904,0.3990,0.1631,0.4904,-0.3990,-0.0952,-0.0096,0.0010,0.0957,0.0957,-0.298,1.160,-3.833,3.811
22.408,south / back,0.0585,-0.5000,0.4000,0.0585,0.5000,-0.4000,0.1580,-0.4851,0.3989,0.1580,0.4851,-0.3989,-0.0995,-0.0149,0.0011,0.1006,0.1006,-0.352,0.752,-3.388,3.811
22.509,south / back,0.0485,-0.5000,0.4000,0.0485,0.5000,-0.4000,0.1554,-0.4795,0.4000,0.1554,0.4795,-0.4000,-0.1069,-0.0205,0.0000,0.1089,0.1089,0.374,0.691,-3.076,3.816
22.608,south / back,0.0386,-0.5000,0.4000,0.0386,0.5000,-0.4000,0.1455,-0.4763,0.3987,0.1455,0.4763,-0.3987,-0.1069,-0.0237,0.0013,0.1095,0.1095,1.403,1.108,-2.910,3.816
22.713,south / back,0.0281,-0.5000,0.4000,0.0281,0.5000,-0.4000,0.1353,-0.4754,0.3990,0.1353,0.4754,-0.3990,-0.1073,-0.0246,0.0010,0.1101,0.1101,1.285,1.021,-2.802,3.811
22.807,south / back,0.0186,-0.5000,0.4000,0.0186,0.5000,-0.4000,0.1275,-0.4753,0.3988,0.1275,0.4753,-0.3988,-0.1088,-0.0247,0.0012,0.1116,0.1116,1.091,0.693,-2.649,3.816
22.918,south / back,0.0075,-0.5000,0.4000,0.0075,0.5000,-0.4000,0.1148,-0.4780,0.4003,0.1148,0.4780,-0.4003,-0.1073,-0.0220,-0.0003,0.1095,0.1095,0.606,0.476,-2.608,3.822
23.007,south / back,0.0000,-0.5000,0.4000,0.0000,0.5000,-0.4000,0.1007,-0.4795,0.4018,0.1007,0.4795,-0.4018,-0.1007,-0.0205,-0.0018,0.1027,0.1028,0.227,0.510,-2.425,3.816
23.122,south / back,0.0000,-0.5000,0.4000,0.0000,0.5000,-0.4000,0.0931,-0.4802,0.4014,0.0931,0.4802,-0.4014,-0.0931,-0.0198,-0.0014,0.0952,0.0952,-0.094,0.024,-2.264,3.811
23.224,south / back hover,0.0000,-0.5000,0.4000,0.0000,0.5000,-0.4000,0.0860,-0.4781,0.4008,0.0860,0.4781,-0.4008,-0.0860,-0.0219,-0.0008,0.0887,0.0887,-0.015,0.083,-2.225,3.816
23.323,south / back hover,0.0000,-0.5000,0.4000,0.0000,0.5000,-0.4000,0.0787,-0.4758,0.3988,0.0787,0.4758,-0.3988,-0.0787,-0.0242,0.0012,0.0823,0.0823,0.348,0.303,-2.246,3.811
23.419,south / back hover,0.0000,-0.5000,0.4000,0.0000,0.5000,-0.4000,0.0695,-0.4742,0.3978,0.0695,0.4742,-0.3978,-0.0695,-0.0258,0.0022,0.0741,0.0742,0.779,0.633,-2.407,3.811
23.513,south / back hover,0.0000,-0.5000,0.4000,0.0000,0.5000,-0.4000,0.0623,-0.4749,0.3994,0.0623,0.4749,-0.3994,-0.0623,-0.0251,0.0006,0.0672,0.0672,1.000,0.603,-2.615,3.816
23.618,south / back hover,0.0000,-0.5000,0.4000,0.0000,0.5000,-0.4000,0.0554,-0.4773,0.3997,0.0554,0.4773,-0.3997,-0.0554,-0.0227,0.0003,0.0599,0.0599,0.617,0.004,-2.790,3.816
23.712,south / back hover,0.0000,-0.5000,0.4000,0.0000,0.5000,-0.4000,0.0467,-0.4786,0.3999,0.0467,0.4786,-0.3999,-0.0467,-0.0214,0.0001,0.0513,0.0513,0.398,-0.325,-2.691,3.811
23.810,south / back hover,0.0000,-0.5000,0.4000,0.0000,0.5000,-0.4000,0.0399,-0.4797,0.3980,0.0399,0.4797,-0.3980,-0.0399,-0.0203,0.0020,0.0448,0.0448,-0.208,-0.611,-2.514,3.811
23.911,south / back hover,0.0000,-0.5000,0.4000,0.0000,0.5000,-0.4000,0.0370,-0.4813,0.3960,0.0370,0.4813,-0.3960,-0.0370,-0.0187,0.0040,0.0414,0.0416,-0.155,-0.788,-2.538,3.801
24.019,south / back hover,0.0000,-0.5000,0.4000,0.0000,0.5000,-0.4000,0.0428,-0.4791,0.3977,0.0428,0.4791,-0.3977,-0.0428,-0.0209,0.0023,0.0476,0.0477,0.011,-0.393,-2.609,3.811
24.109,south / back hover,0.0000,-0.5000,0.4000,0.0000,0.5000,-0.4000,0.0492,-0.4758,0.3984,0.0492,0.4758,-0.3984,-0.0492,-0.0242,0.0016,0.0549,0.0549,0.313,0.365,-2.852,3.811
24.224,south / back hover,0.0000,-0.5000,0.4000,0.0000,0.5000,-0.4000,0.0495,-0.4748,0.3990,0.0495,0.4748,-0.3990,-0.0495,-0.0252,0.0010,0.0556,0.0556,0.829,1.673,-3.119,3.811
24.306,south / back hover,0.0000,-0.5000,0.4000,0.0000,0.5000,-0.4000,0.0465,-0.4730,0.4010,0.0465,0.4730,-0.4010,-0.0465,-0.0270,-0.0010,0.0537,0.0537,1.356,1.982,-3.308,3.811
24.417,south / back hover,0.0000,-0.5000,0.4000,0.0000,0.5000,-0.4000,0.0406,-0.4740,0.4019,0.0406,0.4740,-0.4019,-0.0406,-0.0260,-0.0019,0.0482,0.0482,0.997,1.179,-3.394,3.811
24.507,west / return,0.0000,-0.4999,0.4000,0.0000,0.4999,-0.4000,0.0365,-0.4752,0.4012,0.0365,0.4752,-0.4012,-0.0365,-0.0247,-0.0012,0.0441,0.0441,0.675,0.014,-3.245,3.811
24.607,west / return,0.0000,-0.4900,0.4000,0.0000,0.4900,-0.4000,0.0329,-0.4790,0.3988,0.0329,0.4790,-0.3988,-0.0329,-0.0110,0.0012,0.0347,0.0347,0.277,-0.658,-3.182,3.806
24.707,west / return,0.0000,-0.4800,0.4000,0.0000,0.4800,-0.4000,0.0311,-0.4848,0.3989,0.0311,0.4848,-0.3989,-0.0311,0.0049,0.0011,0.0315,0.0315,0.162,-0.078,-3.087,3.811
24.812,west / return,0.0000,-0.4695,0.4000,0.0000,0.4695,-0.4000,0.0341,-0.4867,0.3977,0.0341,0.4867,-0.3977,-0.0341,0.0172,0.0023,0.0382,0.0383,-0.451,-0.102,-2.908,3.806
24.906,west / return,0.0000,-0.4600,0.4000,0.0000,0.4600,-0.4000,0.0346,-0.4812,0.3981,0.0346,0.4812,-0.3981,-0.0346,0.0212,0.0019,0.0406,0.0407,-1.127,0.309,-2.701,3.806
25.017,west / return,0.0000,-0.4489,0.4000,0.0000,0.4489,-0.4000,0.0360,-0.4722,0.3976,0.0360,0.4722,-0.3976,-0.0360,0.0233,0.0024,0.0429,0.0429,-0.608,0.946,-2.446,3.811
25.107,west / return,0.0000,-0.4400,0.4000,0.0000,0.4400,-0.4000,0.0363,-0.4647,0.3955,0.0363,0.4647,-0.3955,-0.0363,0.0247,0.0045,0.0439,0.0441,0.332,0.832,-2.288,3.806
25.221,west / return,0.0000,-0.4286,0.4000,0.0000,0.4286,-0.4000,0.0351,-0.4583,0.3963,0.0351,0.4583,-0.3963,-0.0351,0.0297,0.0037,0.0460,0.0462,0.628,0.667,-2.077,3.806
25.306,west / return,0.0000,-0.4200,0.4000,0.0000,0.4200,-0.4000,0.0337,-0.4539,0.3986,0.0337,0.4539,-0.3986,-0.0337,0.0339,0.0014,0.0478,0.0478,0.767,0.204,-1.876,3.811
25.413,west / return,0.0000,-0.4093,0.4000,0.0000,0.4093,-0.4000,0.0317,-0.4474,0.4014,0.0317,0.4474,-0.4014,-0.0317,0.0381,-0.0014,0.0496,0.0496,0.273,0.293,-1.864,3.811
25.506,west / return,0.0000,-0.4000,0.4000,0.0000,0.4000,-0.4000,0.0295,-0.4417,0.4036,0.0295,0.4417,-0.4036,-0.0295,0.0417,-0.0036,0.0511,0.0512,0.027,0.295,-1.803,3.811
25.613,west / return,0.0000,-0.3894,0.4000,0.0000,0.3894,-0.4000,0.0300,-0.4319,0.4056,0.0300,0.4319,-0.4056,-0.0300,0.0425,-0.0056,0.0520,0.0523,-0.011,0.092,-1.640,3.816
25.706,west / return,0.0000,-0.3801,0.4000,0.0000,0.3801,-0.4000,0.0316,-0.4226,0.4045,0.0316,0.4226,-0.4045,-0.0316,0.0426,-0.0045,0.0530,0.0532,0.122,0.176,-1.554,3.806
25.813,west / return,0.0000,-0.3694,0.4000,0.0000,0.3694,-0.4000,0.0353,-0.4154,0.4025,0.0353,0.4154,-0.4025,-0.0353,0.0461,-0.0025,0.0581,0.0581,0.519,0.399,-1.418,3.806
25.906,west / return,0.0000,-0.3600,0.4000,0.0000,0.3600,-0.4000,0.0337,-0.4117,0.4023,0.0337,0.4117,-0.4023,-0.0337,0.0517,-0.0023,0.0617,0.0618,0.446,0.908,-1.242,3.806
26.014,west / return,0.0000,-0.3492,0.4000,0.0000,0.3492,-0.4000,0.0296,-0.4105,0.4029,0.0296,0.4105,-0.4029,-0.0296,0.0613,-0.0029,0.0681,0.0682,0.080,0.909,-1.090,3.811
26.106,west / return,0.0000,-0.3400,0.4000,0.0000,0.3400,-0.4000,0.0205,-0.4084,0.4011,0.0205,0.4084,-0.4011,-0.0205,0.0684,-0.0011,0.0714,0.0714,-0.560,0.201,-0.795,3.806
26.212,west / return,0.0000,-0.3294,0.4000,0.0000,0.3294,-0.4000,0.0207,-0.3995,0.4010,0.0207,0.3995,-0.4010,-0.0207,0.0701,-0.0010,0.0730,0.0730,-1.356,-0.399,-0.422,3.811
26.306,west / return,0.0000,-0.3200,0.4000,0.0000,0.3200,-0.4000,0.0262,-0.3925,0.4003,0.0262,0.3925,-0.4003,-0.0262,0.0725,-0.0003,0.0771,0.0771,-1.012,-1.026,0.046,3.806
26.415,west / return,0.0000,-0.3092,0.4000,0.0000,0.3092,-0.4000,0.0347,-0.3839,0.4012,0.0347,0.3839,-0.4012,-0.0347,0.0747,-0.0012,0.0824,0.0824,-0.552,0.264,0.218,3.811
26.506,west / return,0.0000,-0.3000,0.4000,0.0000,0.3000,-0.4000,0.0365,-0.3718,0.3992,0.0365,0.3718,-0.3992,-0.0365,0.0718,0.0008,0.0805,0.0805,-0.150,1.598,0.258,3.811
26.616,west / return,0.0000,-0.2891,0.4000,0.0000,0.2891,-0.4000,0.0345,-0.3656,0.3985,0.0345,0.3656,-0.3985,-0.0345,0.0765,0.0015,0.0839,0.0839,0.028,1.824,0.495,3.801
26.706,west / return,0.0000,-0.2800,0.4000,0.0000,0.2800,-0.4000,0.0264,-0.3600,0.3983,0.0264,0.3600,-0.3983,-0.0264,0.0800,0.0017,0.0842,0.0842,0.353,0.956,0.779,3.806
26.822,west / return,0.0000,-0.2684,0.4000,0.0000,0.2684,-0.4000,0.0202,-0.3545,0.3976,0.0202,0.3545,-0.3976,-0.0202,0.0861,0.0024,0.0885,0.0885,-0.266,-0.011,0.935,3.811
26.908,west / return,0.0000,-0.2598,0.4000,0.0000,0.2598,-0.4000,0.0180,-0.3453,0.3981,0.0180,0.3453,-0.3981,-0.0180,0.0855,0.0019,0.0873,0.0874,-0.695,-0.527,0.968,3.806
27.012,west / return,0.0000,-0.2494,0.4000,0.0000,0.2494,-0.4000,0.0187,-0.3364,0.3965,0.0187,0.3364,-0.3965,-0.0187,0.0870,0.0035,0.0890,0.0891,-0.375,-0.586,1.124,3.806
27.112,west / return,0.0000,-0.2394,0.4000,0.0000,0.2394,-0.4000,0.0238,-0.3273,0.3968,0.0238,0.3273,-0.3968,-0.0238,0.0879,0.0032,0.0910,0.0911,-0.464,-0.218,1.299,3.806
27.212,west / return,0.0000,-0.2294,0.4000,0.0000,0.2294,-0.4000,0.0243,-0.3196,0.3985,0.0243,0.3196,-0.3985,-0.0243,0.0902,0.0015,0.0934,0.0934,-0.609,0.694,1.353,3.806
27.310,west / return,0.0000,-0.2197,0.4000,0.0000,0.2197,-0.4000,0.0236,-0.3042,0.3997,0.0236,0.3042,-0.3997,-0.0236,0.0846,0.0003,0.0878,0.0878,-0.263,1.033,1.427,3.806
27.420,west / return,0.0000,-0.2086,0.4000,0.0000,0.2086,-0.4000,0.0216,-0.2870,0.3994,0.0216,0.2870,-0.3994,-0.0216,0.0783,0.0006,0.0813,0.0813,-0.006,0.850,1.365,3.801
27.511,west / return,0.0000,-0.1995,0.4000,0.0000,0.1995,-0.4000,0.0166,-0.2798,0.3984,0.0166,0.2798,-0.3984,-0.0166,0.0803,0.0016,0.0820,0.0820,0.915,0.481,1.204,3.801
27.611,west / return,0.0000,-0.1895,0.4000,0.0000,0.1895,-0.4000,0.0123,-0.2711,0.3983,0.0123,0.2711,-0.3983,-0.0123,0.0816,0.0017,0.0825,0.0826,0.550,0.059,0.960,3.801
27.709,west / return,0.0000,-0.1797,0.4000,0.0000,0.1797,-0.4000,0.0073,-0.2603,0.3978,0.0073,0.2603,-0.3978,-0.0073,0.0806,0.0022,0.0809,0.0810,0.036,-0.581,0.785,3.806
27.814,west / return,0.0000,-0.1692,0.4000,0.0000,0.1692,-0.4000,0.0069,-0.2497,0.3977,0.0069,0.2497,-0.3977,-0.0069,0.0804,0.0023,0.0807,0.0808,-0.155,-0.743,0.592,3.806
27.911,west / return,0.0000,-0.1595,0.4000,0.0000,0.1595,-0.4000,0.0065,-0.2390,0.3984,0.0065,0.2390,-0.3984,-0.0065,0.0795,0.0016,0.0798,0.0798,0.051,-0.342,0.432,3.801
28.015,west / return,0.0000,-0.1491,0.4000,0.0000,0.1491,-0.4000,0.0079,-0.2270,0.4006,0.0079,0.2270,-0.4006,-0.0079,0.0779,-0.0006,0.0783,0.0783,0.377,0.050,0.161,3.806
28.112,west / return,0.0000,-0.1394,0.4000,0.0000,0.1394,-0.4000,0.0061,-0.2182,0.4013,0.0061,0.2182,-0.4013,-0.0061,0.0787,-0.0013,0.0790,0.0790,0.500,0.301,-0.073,3.806
28.221,west / return,0.0000,-0.1285,0.4000,0.0000,0.1285,-0.4000,0.0034,-0.2077,0.4014,0.0034,0.2077,-0.4014,-0.0034,0.0791,-0.0014,0.0792,0.0792,0.395,0.238,-0.100,3.806
28.321,west / return,0.0000,-0.1185,0.4000,0.0000,0.1185,-0.4000,-0.0003,-0.1964,0.4013,-0.0003,0.1964,-0.4013,0.0003,0.0779,-0.0013,0.0779,0.0779,0.040,0.193,-0.214,3.801
28.422,west / return,0.0000,-0.1084,0.4000,0.0000,0.1084,-0.4000,-0.0023,-0.1852,0.3987,-0.0023,0.1852,-0.3987,0.0023,0.0768,0.0013,0.0769,0.0769,0.100,-0.007,-0.196,3.801
28.511,west / return,0.0000,-0.0995,0.4000,0.0000,0.0995,-0.4000,-0.0009,-0.1759,0.3983,-0.0009,0.1759,-0.3983,0.0009,0.0764,0.0017,0.0764,0.0765,0.092,-0.509,-0.224,3.806
28.637,west / return,0.0000,-0.0870,0.4000,0.0000,0.0870,-0.4000,-0.0010,-0.1624,0.3973,-0.0010,0.1624,-0.3973,0.0010,0.0754,0.0027,0.0754,0.0755,0.178,-0.076,-0.256,3.795
28.706,west / return,0.0000,-0.0800,0.4000,0.0000,0.0800,-0.4000,-0.0003,-0.1509,0.3980,-0.0003,0.1509,-0.3980,0.0003,0.0709,0.0020,0.0709,0.0709,0.117,0.266,-0.179,3.801
28.829,west / return,0.0000,-0.0677,0.4000,0.0000,0.0677,-0.4000,0.0003,-0.1382,0.3988,0.0003,0.1382,-0.3988,-0.0003,0.0705,0.0012,0.0705,0.0705,0.561,0.286,-0.060,3.801
28.905,west / return,0.0000,-0.0601,0.4000,0.0000,0.0601,-0.4000,-0.0009,-0.1234,0.3992,-0.0009,0.1234,-0.3992,0.0009,0.0633,0.0008,0.0634,0.0634,0.642,-0.038,0.144,3.806
29.042,west / return,0.0000,-0.0465,0.4000,0.0000,0.0465,-0.4000,0.0006,-0.1131,0.4022,0.0006,0.1131,-0.4022,-0.0006,0.0666,-0.0022,0.0666,0.0666,0.670,-0.300,0.454,3.806
29.106,west / return,0.0000,-0.0400,0.4000,0.0000,0.0400,-0.4000,0.0032,-0.1000,0.4014,0.0032,0.1000,-0.4014,-0.0032,0.0599,-0.0014,0.0600,0.0600,0.832,-0.300,0.518,3.801
29.235,west / return,0.0000,-0.0271,0.4000,0.0000,0.0271,-0.4000,0.0054,-0.0857,0.4030,0.0054,0.0857,-0.4030,-0.0054,0.0586,-0.0030,0.0588,0.0589,0.832,0.347,0.257,3.806
29.306,west / return,0.0000,-0.0200,0.4000,0.0000,0.0200,-0.4000,0.0090,-0.0716,0.4038,0.0090,0.0716,-0.4038,-0.0090,0.0516,-0.0038,0.0523,0.0525,1.053,0.607,-0.086,3.806
29.432,west / return,0.0000,-0.0074,0.4000,0.0000,0.0074,-0.4000,0.0099,-0.0594,0.4032,0.0099,0.0594,-0.4032,-0.0099,0.0520,-0.0032,0.0530,0.0531,1.092,0.846,-0.352,3.801
29.507,west / return,0.0000,0.0000,0.4000,0.0000,-0.0000,-0.4000,0.0092,-0.0488,0.4034,0.0092,0.0488,-0.4034,-0.0092,0.0488,-0.0034,0.0496,0.0497,1.262,0.959,-0.504,3.795
29.623,west / return,0.0000,0.0000,0.4000,0.0000,-0.0000,-0.4000,0.0064,-0.0359,0.4043,0.0064,0.0359,-0.4043,-0.0064,0.0359,-0.0043,0.0364,0.0367,1.098,0.658,-0.438,3.801
29.717,west / return,0.0000,0.0000,0.4000,0.0000,-0.0000,-0.4000,0.0075,-0.0255,0.4045,0.0075,0.0255,-0.4045,-0.0075,0.0255,-0.0045,0.0266,0.0270,0.991,0.065,-0.345,3.801
29.819,west / return hover,0.0000,0.0000,0.4000,0.0000,-0.0000,-0.4000,0.0098,-0.0142,0.4049,0.0098,0.0142,-0.4049,-0.0098,0.0142,-0.0049,0.0172,0.0179,0.999,-0.069,-0.408,3.801
29.905,west / return hover,0.0000,0.0000,0.4000,0.0000,-0.0000,-0.4000,0.0116,-0.0047,0.4031,0.0116,0.0047,-0.4031,-0.0116,0.0047,-0.0031,0.0125,0.0129,1.297,0.204,-0.411,3.801
30.013,west / return hover,0.0000,0.0000,0.4000,0.0000,-0.0000,-0.4000,0.0136,0.0039,0.4023,0.0136,-0.0039,-0.4023,-0.0136,-0.0039,-0.0023,0.0142,0.0143,1.284,0.364,-0.346,3.801
30.105,west / return hover,0.0000,0.0000,0.4000,0.0000,-0.0000,-0.4000,0.0168,0.0121,0.4016,0.0168,-0.0121,-0.4016,-0.0168,-0.0121,-0.0016,0.0207,0.0207,1.496,0.661,-0.196,3.795
30.210,west / return hover,0.0000,0.0000,0.4000,0.0000,-0.0000,-0.4000,0.0170,0.0156,0.4022,0.0170,-0.0156,-0.4022,-0.0170,-0.0156,-0.0022,0.0231,0.0232,1.478,0.590,-0.034,3.806
30.304,west / return hover,0.0000,0.0000,0.4000,0.0000,-0.0000,-0.4000,0.0175,0.0172,0.4032,0.0175,-0.0172,-0.4032,-0.0175,-0.0172,-0.0032,0.0246,0.0248,1.192,0.547,-0.026,3.801
30.419,west / return hover,0.0000,0.0000,0.4000,0.0000,-0.0000,-0.4000,0.0161,0.0180,0.4033,0.0161,-0.0180,-0.4033,-0.0161,-0.0180,-0.0033,0.0241,0.0244,1.011,0.529,-0.174,3.801
30.504,west / return hover,0.0000,0.0000,0.4000,0.0000,-0.0000,-0.4000,0.0127,0.0169,0.4040,0.0127,-0.0169,-0.4040,-0.0127,-0.0169,-0.0040,0.0212,0.0215,0.777,0.260,-0.357,3.795
30.617,west / return hover,0.0000,0.0000,0.4000,0.0000,-0.0000,-0.4000,0.0128,0.0268,0.4032,0.0128,-0.0268,-0.4032,-0.0128,-0.0268,-0.0032,0.0297,0.0299,0.253,0.064,-0.741,3.795
30.704,west / return hover,0.0000,0.0000,0.4000,0.0000,-0.0000,-0.4000,0.0165,0.0344,0.4000,0.0165,-0.0344,-0.4000,-0.0165,-0.0344,-0.0000,0.0382,0.0382,0.566,-0.307,-1.208,3.790
30.814,west / return hover,0.0000,0.0000,0.4000,0.0000,-0.0000,-0.4000,0.0153,0.0376,0.3964,0.0153,-0.0376,-0.3964,-0.0153,-0.0376,0.0036,0.0406,0.0407,1.869,0.621,-1.549,3.790
30.905,west / return hover,0.0000,0.0000,0.4000,0.0000,-0.0000,-0.4000,0.0111,0.0342,0.3963,0.0111,-0.0342,-0.3963,-0.0111,-0.0342,0.0037,0.0359,0.0361,1.729,0.507,-1.728,3.790
31.012,west / return hover,0.0000,0.0000,0.4000,0.0000,-0.0000,-0.4000,0.0080,0.0297,0.3957,0.0080,-0.0297,-0.3957,-0.0080,-0.0297,0.0043,0.0307,0.0310,0.971,-0.084,-1.930,3.795
31.118,landing,0.0000,0.0000,0.3932,0.0000,-0.0000,-0.3932,-0.0009,0.0243,0.3982,-0.0009,-0.0243,-0.3982,0.0009,-0.0243,-0.0050,0.0243,0.0248,0.495,-0.190,-1.950,3.801
31.208,landing,0.0000,0.0000,0.3811,0.0000,-0.0000,-0.3811,-0.0023,0.0187,0.4021,-0.0023,-0.0187,-0.4021,0.0023,-0.0187,-0.0210,0.0188,0.0282,0.043,-0.468,-1.774,3.795
31.325,landing,0.0000,0.0000,0.3655,0.0000,-0.0000,-0.3655,-0.0074,0.0167,0.4018,-0.0074,-0.0167,-0.4018,0.0074,-0.0167,-0.0363,0.0182,0.0406,-0.120,-0.581,-1.655,3.801
31.417,landing,0.0000,0.0000,0.3533,0.0000,-0.0000,-0.3533,-0.0104,0.0149,0.4006,-0.0104,-0.0149,-0.4006,0.0104,-0.0149,-0.0473,0.0182,0.0506,-0.122,-0.453,-1.445,3.795
31.532,landing,0.0000,0.0000,0.3379,0.0000,-0.0000,-0.3379,-0.0132,0.0136,0.3979,-0.0132,-0.0136,-0.3979,0.0132,-0.0136,-0.0601,0.0190,0.0630,0.175,-0.497,-1.273,3.790
31.604,landing,0.0000,0.0000,0.3283,0.0000,-0.0000,-0.3283,-0.0170,0.0114,0.3964,-0.0170,-0.0114,-0.3964,0.0170,-0.0114,-0.0681,0.0204,0.0711,0.357,-0.304,-1.137,3.801
31.738,landing,0.0000,0.0000,0.3105,0.0000,-0.0000,-0.3105,-0.0226,0.0071,0.3946,-0.0226,-0.0071,-0.3946,0.0226,-0.0071,-0.0841,0.0237,0.0874,0.122,-0.518,-1.117,3.795
31.806,landing,0.0000,0.0000,0.3014,0.0000,-0.0000,-0.3014,-0.0288,0.0031,0.3940,-0.0288,-0.0031,-0.3940,0.0288,-0.0031,-0.0926,0.0290,0.0970,-0.053,-0.855,-1.049,3.801
31.939,landing,0.0000,0.0000,0.2837,0.0000,-0.0000,-0.2837,-0.0308,0.0003,0.3918,-0.0308,-0.0003,-0.3918,0.0308,-0.0003,-0.1081,0.0308,0.1124,-0.443,-0.893,-1.103,3.801
32.006,landing,0.0000,0.0000,0.2747,0.0000,-0.0000,-0.2747,-0.0242,0.0042,0.3844,-0.0242,-0.0042,-0.3844,0.0242,-0.0042,-0.1097,0.0246,0.1124,-0.674,-1.256,-1.204,3.801
32.136,landing,0.0000,0.0000,0.2574,0.0000,-0.0000,-0.2574,-0.0145,0.0094,0.3760,-0.0145,-0.0094,-0.3760,0.0145,-0.0094,-0.1186,0.0173,0.1199,-0.268,-0.513,-0.973,3.801
32.204,landing,0.0000,0.0000,0.2483,0.0000,-0.0000,-0.2483,-0.0097,0.0131,0.3664,-0.0097,-0.0131,-0.3664,0.0097,-0.0131,-0.1181,0.0163,0.1192,0.140,0.446,-0.709,3.801
32.304,landing,0.0000,0.0000,0.2350,0.0000,-0.0000,-0.2350,-0.0070,0.0181,0.3562,-0.0070,-0.0181,-0.3562,0.0070,-0.0181,-0.1212,0.0194,0.1228,0.644,0.963,-0.511,3.801
32.410,landing,0.0000,0.0000,0.2209,0.0000,-0.0000,-0.2209,-0.0010,0.0223,0.3458,-0.0010,-0.0223,-0.3458,0.0010,-0.0223,-0.1249,0.0223,0.1269,0.493,0.734,-0.395,3.811
32.504,landing,0.0000,0.0000,0.2083,0.0000,-0.0000,-0.2083,0.0046,0.0295,0.3280,0.0046,-0.0295,-0.3280,-0.0046,-0.0295,-0.1196,0.0298,0.1233,1.011,0.292,-0.422,3.795
32.618,landing,0.0000,0.0000,0.1931,0.0000,-0.0000,-0.1931,0.0103,0.0363,0.3041,0.0103,-0.0363,-0.3041,-0.0103,-0.0363,-0.1110,0.0377,0.1172,1.954,0.934,-0.436,3.790
32.704,landing,0.0000,0.0000,0.1817,0.0000,-0.0000,-0.1817,0.0191,0.0459,0.2780,0.0191,-0.0459,-0.2780,-0.0191,-0.0459,-0.0963,0.0497,0.1084,0.732,0.577,-0.370,3.769
32.807,landing,0.0000,0.0000,0.1680,0.0000,-0.0000,-0.1680,0.0242,0.0389,0.2555,0.0242,-0.0389,-0.2555,-0.0242,-0.0389,-0.0875,0.0458,0.0988,2.469,0.484,-0.245,3.801
32.904,landing,0.0000,0.0000,0.1550,0.0000,-0.0000,-0.1550,0.0239,0.0285,0.2352,0.0239,-0.0285,-0.2352,-0.0239,-0.0285,-0.0802,0.0372,0.0884,1.917,1.765,-0.348,3.806
33.010,landing,0.0000,0.0000,0.1409,0.0000,-0.0000,-0.1409,0.0226,0.0215,0.2086,0.0226,-0.0215,-0.2086,-0.0226,-0.0215,-0.0677,0.0312,0.0746,-0.160,0.718,-0.355,3.801
33.104,landing,0.0000,0.0000,0.1283,0.0000,-0.0000,-0.1283,0.0181,0.0145,0.1808,0.0181,-0.0145,-0.1808,-0.0181,-0.0145,-0.0525,0.0232,0.0574,-0.596,0.478,-0.248,3.790
33.222,landing,0.0000,0.0000,0.1126,0.0000,-0.0000,-0.1126,0.0148,0.0210,0.1558,0.0148,-0.0210,-0.1558,-0.0148,-0.0210,-0.0432,0.0257,0.0503,-1.066,0.143,-0.473,3.758
33.304,landing,0.0000,0.0000,0.1017,0.0000,-0.0000,-0.1017,0.0164,0.0216,0.1310,0.0164,-0.0216,-0.1310,-0.0164,-0.0216,-0.0293,0.0271,0.0399,-0.975,-0.365,-0.724,3.806
33.416,landing,0.0000,0.0000,0.0867,0.0000,-0.0000,-0.0867,0.0126,0.0184,0.1039,0.0126,-0.0184,-0.1039,-0.0126,-0.0184,-0.0172,0.0222,0.0281,1.309,-0.264,-1.295,3.785
33.508,landing,0.0000,0.0000,0.0745,0.0000,-0.0000,-0.0745,0.0103,0.0173,0.0800,0.0103,-0.0173,-0.0800,-0.0103,-0.0173,-0.0055,0.0201,0.0209,1.291,0.487,-1.765,3.795
33.610,landing,0.0000,0.0000,0.0608,0.0000,-0.0000,-0.0608,0.0089,0.0149,0.0595,0.0089,-0.0149,-0.0595,-0.0089,-0.0149,0.0013,0.0174,0.0174,0.263,-0.107,-1.928,3.801
33.709,landing,0.0000,0.0000,0.0477,0.0000,-0.0000,-0.0477,0.0097,0.0129,0.0432,0.0097,-0.0129,-0.0432,-0.0097,-0.0129,0.0046,0.0162,0.0168,0.334,0.312,-1.971,3.806
33.812,landing,0.0000,0.0000,0.0339,0.0000,-0.0000,-0.0339,0.0123,0.0139,0.0301,0.0123,-0.0139,-0.0301,-0.0123,-0.0139,0.0038,0.0186,0.0190,0.454,0.732,-1.573,3.811
33.912,landing,0.0000,0.0000,0.0206,0.0000,-0.0000,-0.0206,0.0129,0.0105,0.0221,0.0129,-0.0105,-0.0221,-0.0129,-0.0105,-0.0014,0.0166,0.0167,0.675,1.404,-1.027,3.811
34.016,landing,0.0000,0.0000,0.0068,0.0000,-0.0000,-0.0068,0.0095,0.0054,0.0185,0.0095,-0.0054,-0.0185,-0.0095,-0.0054,-0.0117,0.0109,0.0160,-0.031,0.901,-0.425,3.822
34.109,landing,0.0000,0.0000,0.0000,0.0000,-0.0000,-0.0000,0.0010,0.0022,0.0158,0.0010,-0.0022,-0.0158,-0.0010,-0.0022,-0.0158,0.0024,0.0160,-0.602,0.266,0.060,3.822
34.224,landing,0.0000,0.0000,0.0000,0.0000,-0.0000,-0.0000,-0.0067,0.0064,0.0065,-0.0067,-0.0064,-0.0065,0.0067,-0.0064,-0.0065,0.0093,0.0113,-0.350,-1.768,0.364,4.001
34.319,landing,0.0000,0.0000,0.0000,0.0000,-0.0000,-0.0000,-0.0073,0.0138,0.0012,-0.0073,-0.0138,-0.0012,0.0073,-0.0138,-0.0012,0.0156,0.0157,1.830,-1.400,-0.374,3.996
34.416,landed,0.0000,0.0000,0.0000,0.0000,-0.0000,-0.0000,0.0029,0.0172,0.0108,0.0029,-0.0172,-0.0108,-0.0029,-0.0172,-0.0108,0.0174,0.0205,0.700,-0.758,-2.314,3.996
34.504,landed,0.0000,0.0000,0.0000,0.0000,-0.0000,-0.0000,0.0105,0.0166,0.0144,0.0105,-0.0166,-0.0144,-0.0105,-0.0166,-0.0144,0.0197,0.0244,0.989,-0.637,-1.903,3.996
34.611,landed,0.0000,0.0000,0.0000,0.0000,-0.0000,-0.0000,0.0162,0.0148,0.0146,0.0162,-0.0148,-0.0146,-0.0162,-0.0148,-0.0146,0.0220,0.0264,1.506,0.109,-1.786,4.001
34.704,landed,0.0000,0.0000,0.0000,0.0000,-0.0000,-0.0000,0.0209,0.0112,0.0142,0.0209,-0.0112,-0.0142,-0.0209,-0.0112,-0.0142,0.0237,0.0276,1.485,0.180,-1.762,3.996
34.809,landed,0.0000,0.0000,0.0000,0.0000,-0.0000,-0.0000,0.0231,0.0082,0.0131,0.0231,-0.0082,-0.0131,-0.0231,-0.0082,-0.0131,0.0245,0.0278,1.473,0.219,-1.755,4.001
