time_s,phase,target_x_m,target_y_m,target_z_m,actual_x_m,actual_y_m,actual_z_m,error_x_m,error_y_m,error_z_m,error_xy_m,error_3d_m,roll_deg,pitch_deg,yaw_deg,vbat_v
0.159,init,0.0000,0.0000,0.0000,0.0003,0.0005,0.0128,-0.0003,-0.0005,-0.0128,0.0006,0.0128,0.000,0.000,0.000,3.706
0.213,init,0.0000,0.0000,0.0000,0.0001,0.0008,0.0110,-0.0001,-0.0008,-0.0110,0.0009,0.0111,1.036,0.302,0.260,3.700
0.313,init,0.0000,0.0000,0.0000,0.0002,0.0005,0.0101,-0.0002,-0.0005,-0.0101,0.0006,0.0101,1.017,0.322,0.269,3.706
0.483,init,0.0000,0.0000,0.0000,0.0002,0.0005,0.0105,-0.0002,-0.0005,-0.0105,0.0005,0.0105,1.025,0.322,0.269,3.706
0.544,init,0.0000,0.0000,0.0000,0.0006,0.0004,0.0114,-0.0006,-0.0004,-0.0114,0.0007,0.0114,1.021,0.330,0.280,3.706
0.639,init,0.0000,0.0000,0.0000,0.0003,0.0005,0.0100,-0.0003,-0.0005,-0.0100,0.0005,0.0100,1.016,0.328,0.291,3.706
0.718,takeoff,0.0000,0.0000,0.0059,0.0003,0.0005,0.0102,-0.0003,-0.0005,-0.0042,0.0006,0.0043,1.017,0.342,0.298,3.706
0.827,takeoff,0.0000,0.0000,0.0205,0.0002,0.0005,0.0109,-0.0002,-0.0005,0.0096,0.0005,0.0096,1.004,0.359,0.309,3.706
0.940,takeoff,0.0000,0.0000,0.0355,0.0002,0.0005,0.0106,-0.0002,-0.0005,0.0249,0.0005,0.0249,1.000,0.360,0.316,3.706
1.015,takeoff,0.0000,0.0000,0.0456,0.0007,0.0005,0.0105,-0.0007,-0.0005,0.0351,0.0009,0.0351,0.998,0.357,0.326,3.706
1.115,takeoff,0.0000,0.0000,0.0588,0.0002,0.0005,0.0112,-0.0002,-0.0005,0.0476,0.0006,0.0476,1.004,0.350,0.331,3.700
1.214,takeoff,0.0000,0.0000,0.0721,0.0001,0.0010,0.0115,-0.0001,-0.0010,0.0606,0.0010,0.0606,0.999,0.365,0.340,3.706
1.315,takeoff,0.0000,0.0000,0.0855,0.0001,0.0005,0.0109,-0.0001,-0.0005,0.0746,0.0005,0.0746,0.987,0.363,0.350,3.706
1.421,takeoff,0.0000,0.0000,0.0996,0.0001,0.0005,0.0098,-0.0001,-0.0005,0.0897,0.0005,0.0897,1.003,0.370,0.357,3.706
1.515,takeoff,0.0000,0.0000,0.1122,0.0001,0.0005,0.0110,-0.0001,-0.0005,0.1012,0.0005,0.1012,1.001,0.372,0.361,3.706
1.616,takeoff,0.0000,0.0000,0.1257,0.0001,0.0011,0.0107,-0.0001,-0.0011,0.1150,0.0011,0.1150,0.995,0.363,0.374,3.706
1.757,takeoff,0.0000,0.0000,0.1444,0.0000,0.0005,0.0116,-0.0000,-0.0005,0.1328,0.0005,0.1328,0.974,0.360,0.380,3.700
1.814,takeoff,0.0000,0.0000,0.1521,0.0000,0.0004,0.0108,-0.0000,-0.0004,0.1412,0.0004,0.1412,0.996,0.371,0.386,3.706
1.939,takeoff,0.0000,0.0000,0.1687,0.0000,0.0005,0.0111,-0.0000,-0.0005,0.1577,0.0005,0.1577,1.004,0.372,0.392,3.706
2.012,takeoff,0.0000,0.0000,0.1785,0.0000,0.0004,0.0120,-0.0000,-0.0004,0.1665,0.0004,0.1665,1.005,0.380,0.397,3.706
2.144,takeoff,0.0000,0.0000,0.1960,0.0000,0.0004,0.0123,-0.0000,-0.0004,0.1837,0.0004,0.1837,1.008,0.381,0.402,3.700
2.213,takeoff,0.0000,0.0000,0.2053,-0.0001,0.0005,0.0107,0.0001,-0.0005,0.1946,0.0005,0.1946,1.004,0.372,0.409,3.706
2.335,takeoff,0.0000,0.0000,0.2216,-0.0001,0.0003,0.0104,0.0001,-0.0003,0.2111,0.0003,0.2111,0.999,0.364,0.411,3.700
2.413,takeoff,0.0000,0.0000,0.2319,-0.0001,0.0003,0.0108,0.0001,-0.0003,0.2211,0.0003,0.2211,1.001,0.354,0.411,3.706
2.539,takeoff,0.0000,0.0000,0.2487,-0.0000,0.0003,0.0106,0.0000,-0.0003,0.2381,0.0003,0.2381,1.007,0.364,0.418,3.706
2.626,takeoff,0.0000,0.0000,0.2603,-0.0000,0.0003,0.0100,0.0000,-0.0003,0.2503,0.0003,0.2503,1.006,0.373,0.421,3.706
2.740,takeoff,0.0000,0.0000,0.2755,0.0000,0.0003,0.0105,-0.0000,-0.0003,0.2650,0.0003,0.2650,1.011,0.374,0.424,3.700
2.813,takeoff,0.0000,0.0000,0.2852,-0.0001,0.0003,0.0104,0.0001,-0.0003,0.2747,0.0003,0.2747,1.008,0.376,0.428,3.706
2.947,takeoff,0.0000,0.0000,0.3031,-0.0001,0.0003,0.0112,0.0001,-0.0003,0.2919,0.0003,0.2919,1.008,0.389,0.432,3.700
3.013,takeoff,0.0000,0.0000,0.3120,-0.0001,0.0003,0.0107,0.0001,-0.0003,0.3012,0.0003,0.3012,1.011,0.388,0.436,3.706
3.151,takeoff,0.0000,0.0000,0.3303,-0.0002,0.0003,0.0111,0.0002,-0.0003,0.3192,0.0003,0.3192,1.009,0.390,0.441,3.706
3.214,takeoff,0.0000,0.0000,0.3387,-0.0002,0.0003,0.0106,0.0002,-0.0003,0.3281,0.0003,0.3281,1.008,0.404,0.449,3.706
3.343,takeoff,0.0000,0.0000,0.3559,0.0003,0.0002,0.0114,-0.0003,-0.0002,0.3445,0.0004,0.3445,1.006,0.404,0.456,3.706
3.413,takeoff,0.0000,0.0000,0.3652,-0.0002,0.0002,0.0102,0.0002,-0.0002,0.3550,0.0003,0.3550,0.999,0.393,0.466,3.706
3.541,takeoff,0.0000,0.0000,0.3823,-0.0002,0.0002,0.0107,0.0002,-0.0002,0.3717,0.0003,0.3717,0.999,0.429,0.472,3.700
3.612,takeoff,0.0000,0.0000,0.3918,-0.0002,0.0002,0.0103,0.0002,-0.0002,0.3815,0.0003,0.3815,0.999,0.425,0.482,3.706
3.734,takeoff,0.0000,0.0000,0.4000,-0.0002,0.0002,0.0107,0.0002,-0.0002,0.3893,0.0003,0.3893,1.014,0.422,0.485,3.700
3.822,takeoff,0.0000,0.0000,0.4000,-0.0003,0.0002,0.0099,0.0003,-0.0002,0.3901,0.0003,0.3901,1.008,0.413,0.485,3.706
3.922,hover,0.0000,0.0000,0.4000,-0.0004,0.0002,0.0100,0.0004,-0.0002,0.3900,0.0005,0.3900,1.007,0.408,0.488,3.706
4.013,hover,0.0000,0.0000,0.4000,-0.0003,0.0002,0.0100,0.0003,-0.0002,0.3900,0.0003,0.3900,1.004,0.404,0.492,3.700
4.127,hover,0.0000,0.0000,0.4000,-0.0003,0.0002,0.0101,0.0003,-0.0002,0.3899,0.0004,0.3899,1.001,0.390,0.494,3.706
4.212,hover,0.0000,0.0000,0.4000,-0.0004,0.0007,0.0114,0.0004,-0.0007,0.3886,0.0008,0.3886,1.002,0.390,0.500,3.700
4.313,hover,0.0000,0.0000,0.4000,-0.0004,0.0007,0.0097,0.0004,-0.0007,0.3903,0.0008,0.3903,0.984,0.391,0.508,3.706
4.413,hover,0.0000,0.0000,0.4000,-0.0003,0.0006,0.0108,0.0003,-0.0006,0.3892,0.0006,0.3892,0.986,0.392,0.513,3.700
4.512,hover,0.0000,0.0000,0.4000,0.0001,0.0002,0.0104,-0.0001,-0.0002,0.3896,0.0002,0.3897,0.978,0.379,0.515,3.706
4.642,hover,0.0000,0.0000,0.4000,0.0001,0.0001,0.0095,-0.0001,-0.0001,0.3905,0.0002,0.3905,0.993,0.369,0.524,3.706
4.726,hover,0.0000,0.0000,0.4000,0.0001,0.0007,0.0103,-0.0001,-0.0007,0.3897,0.0007,0.3897,0.999,0.364,0.529,3.700
4.831,hover,0.0000,0.0000,0.4000,-0.0004,0.0007,0.0100,0.0004,-0.0007,0.3900,0.0008,0.3900,0.982,0.368,0.537,3.700
4.913,hover,0.0000,0.0000,0.4000,-0.0004,0.0003,0.0108,0.0004,-0.0003,0.3892,0.0005,0.3892,0.990,0.394,0.542,3.706
5.038,hover,0.0000,0.0000,0.4000,-0.0004,0.0003,0.0097,0.0004,-0.0003,0.3903,0.0005,0.3903,1.003,0.395,0.550,3.700
5.124,hover,0.0000,0.0000,0.4000,-0.0004,0.0003,0.0093,0.0004,-0.0003,0.3907,0.0005,0.3907,1.001,0.389,0.554,3.706
5.222,forward,0.0077,0.0000,0.4000,0.0001,0.0003,0.0090,0.0075,-0.0003,0.3910,0.0075,0.3911,1.007,0.390,0.557,3.706
5.313,forward,0.0167,0.0000,0.4000,-0.0004,0.0003,0.0100,0.0171,-0.0003,0.3900,0.0171,0.3904,0.999,0.377,0.565,3.700
5.423,forward,0.0277,0.0000,0.4000,-0.0004,0.0002,0.0102,0.0281,-0.0002,0.3898,0.0281,0.3908,1.003,0.387,0.570,3.700
5.512,forward,0.0366,0.0000,0.4000,0.0001,0.0003,0.0094,0.0365,-0.0003,0.3906,0.0365,0.3924,1.005,0.383,0.577,3.706
5.614,forward,0.0469,0.0000,0.4000,-0.0004,0.0002,0.0101,0.0473,-0.0002,0.3899,0.0473,0.3928,1.006,0.366,0.582,3.700
5.712,forward,0.0566,0.0000,0.4000,-0.0004,0.0002,0.0122,0.0571,-0.0002,0.3878,0.0571,0.3920,1.006,0.391,0.586,3.700
5.826,forward,0.0681,0.0000,0.4000,0.0000,0.0002,0.0113,0.0680,-0.0002,0.3887,0.0680,0.3946,1.009,0.390,0.590,3.706
5.911,forward,0.0765,0.0000,0.4000,-0.0004,0.0002,0.0111,0.0770,-0.0002,0.3889,0.0770,0.3965,1.010,0.368,0.592,3.700
6.018,forward,0.0872,0.0000,0.4000,-0.0004,0.0002,0.0101,0.0876,-0.0002,0.3899,0.0877,0.3996,1.003,0.388,0.598,3.700
6.111,forward,0.0966,0.0000,0.4000,-0.0004,0.0002,0.0106,0.0970,-0.0002,0.3894,0.0970,0.4013,1.006,0.390,0.606,3.700
6.226,forward,0.1080,0.0000,0.4000,-0.0005,0.0003,0.0107,0.1085,-0.0003,0.3893,0.1085,0.4041,1.009,0.388,0.610,3.706
6.311,forward,0.1165,0.0000,0.4000,-0.0005,0.0009,0.0100,0.1170,-0.0009,0.3900,0.1170,0.4071,1.014,0.385,0.616,3.700
6.422,forward,0.1276,0.0000,0.4000,0.0001,0.0002,0.0100,0.1275,-0.0002,0.3900,0.1275,0.4103,1.005,0.386,0.623,3.706
6.512,forward,0.1366,0.0000,0.4000,-0.0005,0.0002,0.0093,0.1371,-0.0002,0.3907,0.1371,0.4141,1.021,0.376,0.628,3.700
6.622,forward,0.1476,0.0000,0.4000,-0.0005,0.0002,0.0098,0.1481,-0.0002,0.3902,0.1481,0.4173,1.023,0.392,0.633,3.706
6.712,forward,0.1566,0.0000,0.4000,-0.0005,0.0002,0.0096,0.1571,-0.0002,0.3904,0.1571,0.4208,1.015,0.391,0.639,3.706
6.820,forward,0.1674,0.0000,0.4000,-0.0005,0.0002,0.0097,0.1679,-0.0002,0.3903,0.1679,0.4249,1.008,0.387,0.643,3.700
6.912,forward,0.1766,0.0000,0.4000,-0.0005,0.0002,0.0101,0.1771,-0.0002,0.3899,0.1771,0.4282,1.011,0.387,0.652,3.700
7.014,forward,0.1868,0.0000,0.4000,-0.0005,0.0002,0.0096,0.1873,-0.0002,0.3904,0.1873,0.4330,1.007,0.380,0.659,3.706
7.144,forward,0.1999,0.0000,0.4000,-0.0005,0.0002,0.0114,0.2003,-0.0002,0.3886,0.2003,0.4372,1.011,0.393,0.664,3.700
7.216,forward,0.2070,0.0000,0.4000,-0.0005,0.0001,0.0115,0.2076,-0.0001,0.3885,0.2076,0.4405,1.005,0.393,0.673,3.700
7.312,forward,0.2166,0.0000,0.4000,-0.0006,0.0008,0.0120,0.2172,-0.0008,0.3880,0.2172,0.4447,1.005,0.401,0.676,3.706
7.417,forward,0.2271,0.0000,0.4000,-0.0006,0.0006,0.0108,0.2277,-0.0006,0.3892,0.2277,0.4509,0.983,0.399,0.680,3.700
7.512,forward,0.2366,0.0000,0.4000,-0.0005,0.0001,0.0099,0.2371,-0.0001,0.3901,0.2371,0.4565,0.992,0.403,0.691,3.700
7.614,forward,0.2468,0.0000,0.4000,-0.0006,0.0002,0.0100,0.2474,-0.0002,0.3900,0.2474,0.4619,1.008,0.409,0.696,3.706
7.712,forward,0.2567,0.0000,0.4000,-0.0002,0.0001,0.0105,0.2568,-0.0001,0.3895,0.2568,0.4666,1.004,0.414,0.701,3.700
7.811,forward,0.2666,0.0000,0.4000,-0.0002,0.0001,0.0118,0.2667,-0.0001,0.3882,0.2667,0.4710,1.000,0.398,0.702,3.700
7.911,forward,0.2765,0.0000,0.4000,-0.0002,0.0001,0.0102,0.2767,-0.0001,0.3898,0.2767,0.4780,0.996,0.391,0.701,3.700
8.014,forward,0.2868,0.0000,0.4000,-0.0007,0.0001,0.0096,0.2874,-0.0001,0.3904,0.2874,0.4848,0.992,0.403,0.706,3.700
8.146,forward,0.3000,0.0000,0.4000,-0.0008,0.0007,0.0100,0.3008,-0.0007,0.3900,0.3008,0.4925,0.991,0.425,0.711,3.700
8.213,forward,0.3067,0.0000,0.4000,-0.0010,0.0003,0.0099,0.3076,-0.0003,0.3901,0.3076,0.4968,0.973,0.420,0.713,3.700
8.354,forward,0.3208,0.0000,0.4000,-0.0003,0.0003,0.0099,0.3212,-0.0003,0.3901,0.3212,0.5053,0.988,0.411,0.714,3.700
8.413,forward,0.3267,0.0000,0.4000,-0.0009,0.0006,0.0117,0.3276,-0.0006,0.3883,0.3276,0.5080,0.989,0.399,0.718,3.706
8.541,forward,0.3395,0.0000,0.4000,-0.0004,0.0002,0.0121,0.3399,-0.0002,0.3879,0.3399,0.5157,0.983,0.412,0.719,3.700
8.613,forward,0.3467,0.0000,0.4000,-0.0004,0.0002,0.0111,0.3471,-0.0002,0.3889,0.3471,0.5213,0.992,0.401,0.721,3.700
8.748,forward,0.3602,0.0000,0.4000,-0.0009,0.0002,0.0113,0.3611,-0.0002,0.3887,0.3611,0.5306,0.991,0.396,0.723,3.700
8.815,forward,0.3669,0.0000,0.4000,-0.0011,0.0003,0.0107,0.3680,-0.0003,0.3893,0.3680,0.5357,0.996,0.421,0.725,3.706
8.911,forward,0.3765,0.0000,0.4000,-0.0010,0.0002,0.0102,0.3775,-0.0002,0.3898,0.3775,0.5426,0.986,0.418,0.730,3.700
9.013,forward,0.3868,0.0000,0.4000,-0.0009,0.0001,0.0105,0.3876,-0.0001,0.3895,0.3876,0.5495,0.988,0.411,0.732,3.700
9.149,forward,0.4003,0.0000,0.4000,-0.0005,0.0001,0.0094,0.4008,-0.0001,0.3906,0.4008,0.5597,0.993,0.396,0.736,3.700
9.211,forward,0.4066,0.0000,0.4000,-0.0005,0.0002,0.0098,0.4070,-0.0002,0.3902,0.4070,0.5638,0.995,0.392,0.742,3.700
9.355,forward,0.4209,0.0000,0.4000,-0.0011,0.0004,0.0110,0.4220,-0.0004,0.3890,0.4220,0.5739,0.996,0.392,0.745,3.700
9.413,forward,0.4267,0.0000,0.4000,-0.0011,0.0003,0.0107,0.4278,-0.0003,0.3893,0.4278,0.5784,1.003,0.404,0.743,3.700
9.548,forward,0.4402,0.0000,0.4000,-0.0010,0.0004,0.0107,0.4412,-0.0004,0.3893,0.4412,0.5884,1.010,0.410,0.748,3.700
9.613,forward,0.4468,0.0000,0.4000,-0.0012,0.0005,0.0100,0.4479,-0.0005,0.3900,0.4479,0.5939,1.010,0.399,0.751,3.700
9.743,forward,0.4598,0.0000,0.4000,-0.0003,0.0005,0.0109,0.4601,-0.0005,0.3891,0.4601,0.6026,0.999,0.391,0.752,3.700
9.810,forward,0.4665,0.0000,0.4000,-0.0012,0.0016,0.0106,0.4677,-0.0016,0.3894,0.4677,0.6086,0.999,0.370,0.755,3.700
9.909,forward,0.4764,0.0000,0.4000,-0.0012,0.0004,0.0108,0.4776,-0.0004,0.3892,0.4776,0.6161,0.976,0.383,0.753,3.700
10.012,forward,0.4867,0.0000,0.4000,-0.0004,0.0010,0.0104,0.4870,-0.0010,0.3896,0.4870,0.6237,1.005,0.385,0.756,3.700
10.144,forward,0.4999,0.0000,0.4000,-0.0010,0.0001,0.0106,0.5009,-0.0001,0.3894,0.5009,0.6344,0.993,0.371,0.752,3.700
10.213,forward,0.5000,0.0000,0.4000,-0.0010,0.0007,0.0108,0.5010,-0.0007,0.3892,0.5010,0.6345,1.016,0.379,0.751,3.706
10.310,forward,0.5000,0.0000,0.4000,-0.0005,0.0006,0.0107,0.5005,-0.0006,0.3893,0.5005,0.6341,1.009,0.374,0.752,3.700
10.410,forward,0.5000,0.0000,0.4000,-0.0009,0.0001,0.0095,0.5009,-0.0001,0.3905,0.5009,0.6352,1.004,0.352,0.756,3.706
10.520,forward hover,0.5000,0.0000,0.4000,-0.0010,0.0001,0.0102,0.5010,-0.0001,0.3898,0.5010,0.6348,1.020,0.372,0.759,3.706
10.610,forward hover,0.5000,0.0000,0.4000,-0.0010,0.0001,0.0109,0.5010,-0.0001,0.3891,0.5010,0.6344,1.013,0.375,0.761,3.706
10.718,forward hover,0.5000,0.0000,0.4000,-0.0011,0.0001,0.0099,0.5011,-0.0001,0.3901,0.5011,0.6350,1.010,0.370,0.759,3.706
10.810,forward hover,0.5000,0.0000,0.4000,-0.0011,0.0004,0.0105,0.5011,-0.0004,0.3895,0.5011,0.6347,1.014,0.376,0.762,3.706
10.921,forward hover,0.5000,0.0000,0.4000,-0.0011,0.0005,0.0114,0.5011,-0.0005,0.3886,0.5011,0.6341,1.004,0.378,0.769,3.700
11.010,forward hover,0.5000,0.0000,0.4000,-0.0012,0.0006,0.0112,0.5012,-0.0006,0.3888,0.5012,0.6343,0.992,0.375,0.774,3.706
11.128,forward hover,0.5000,0.0000,0.4000,-0.0012,0.0005,0.0116,0.5012,-0.0005,0.3884,0.5012,0.6341,0.985,0.385,0.780,3.706
11.211,forward hover,0.5000,0.0000,0.4000,-0.0013,0.0000,0.0123,0.5013,-0.0000,0.3877,0.5013,0.6338,0.983,0.383,0.783,3.700
11.323,forward hover,0.5000,0.0000,0.4000,-0.0013,-0.0000,0.0118,0.5013,0.0000,0.3882,0.5013,0.6340,0.995,0.383,0.790,3.706
11.410,forward hover,0.5000,0.0000,0.4000,-0.0013,-0.0001,0.0111,0.5013,0.0001,0.3889,0.5013,0.6345,0.993,0.374,0.792,3.706
11.522,forward hover,0.5000,0.0000,0.4000,-0.0013,0.0000,0.0096,0.5013,-0.0000,0.3904,0.5013,0.6354,0.997,0.375,0.795,3.700
11.609,forward hover,0.5000,0.0000,0.4000,-0.0013,0.0005,0.0089,0.5013,-0.0005,0.3911,0.5013,0.6358,0.992,0.379,0.797,3.700
11.720,forward hover,0.5000,0.0000,0.4000,-0.0013,0.0001,0.0093,0.5013,-0.0001,0.3907,0.5013,0.6356,0.977,0.389,0.805,3.706
11.840,left,0.5000,0.0040,0.4000,-0.0007,0.0007,0.0103,0.5007,0.0033,0.3897,0.5007,0.6344,0.988,0.385,0.803,3.700
11.910,left,0.5000,0.0111,0.4000,-0.0013,0.0005,0.0109,0.5013,0.0106,0.3891,0.5014,0.6347,0.981,0.369,0.807,3.706
12.010,left,0.5000,0.0210,0.4000,-0.0013,-0.0001,0.0113,0.5013,0.0211,0.3887,0.5018,0.6347,0.985,0.383,0.807,3.700
12.121,left,0.5000,0.0321,0.4000,-0.0013,-0.0001,0.0108,0.5013,0.0322,0.3892,0.5024,0.6355,1.000,0.373,0.808,3.700
12.209,left,0.5000,0.0409,0.4000,-0.0014,-0.0001,0.0111,0.5014,0.0410,0.3889,0.5030,0.6358,0.993,0.381,0.808,3.700
12.318,left,0.5000,0.0518,0.4000,-0.0009,-0.0001,0.0101,0.5009,0.0519,0.3899,0.5036,0.6369,0.993,0.390,0.807,3.700
12.409,left,0.5000,0.0609,0.4000,-0.0009,-0.0000,0.0094,0.5009,0.0609,0.3906,0.5046,0.6382,0.995,0.375,0.808,3.700
12.522,left,0.5000,0.0722,0.4000,-0.0009,0.0004,0.0101,0.5009,0.0717,0.3899,0.5060,0.6388,0.986,0.375,0.814,3.706
12.610,left,0.5000,0.0810,0.4000,-0.0013,0.0001,0.0094,0.5013,0.0809,0.3906,0.5078,0.6407,0.975,0.375,0.814,3.706
12.719,left,0.5000,0.0919,0.4000,-0.0013,0.0001,0.0092,0.5013,0.0918,0.3908,0.5097,0.6423,0.988,0.381,0.815,3.700
12.809,left,0.5000,0.1009,0.4000,-0.0014,0.0006,0.0106,0.5014,0.1004,0.3894,0.5114,0.6427,0.993,0.387,0.822,3.700
12.934,left,0.5000,0.1135,0.4000,-0.0014,0.0001,0.0111,0.5014,0.1133,0.3889,0.5141,0.6446,0.970,0.382,0.822,3.700
13.010,left,0.5000,0.1210,0.4000,-0.0016,0.0003,0.0110,0.5016,0.1207,0.3890,0.5159,0.6461,0.996,0.379,0.823,3.700
13.144,left,0.5000,0.1344,0.4000,-0.0014,0.0001,0.0108,0.5014,0.1343,0.3892,0.5191,0.6488,0.991,0.378,0.827,3.700
13.210,left,0.5000,0.1410,0.4000,-0.0009,0.0001,0.0108,0.5009,0.1409,0.3892,0.5203,0.6498,0.997,0.371,0.827,3.700
13.341,left,0.5000,0.1541,0.4000,-0.0014,0.0001,0.0120,0.5014,0.1540,0.3880,0.5245,0.6524,0.997,0.361,0.834,3.700
13.411,left,0.5000,0.1611,0.4000,-0.0014,0.0006,0.0108,0.5014,0.1605,0.3892,0.5264,0.6547,0.993,0.374,0.836,3.700
13.522,left,0.5000,0.1722,0.4000,-0.0014,0.0001,0.0099,0.5014,0.1722,0.3901,0.5301,0.6582,0.981,0.371,0.839,3.700
13.624,left,0.5000,0.1824,0.4000,-0.0014,0.0001,0.0107,0.5014,0.1824,0.3893,0.5335,0.6604,0.995,0.370,0.838,3.700
13.710,left,0.5000,0.1910,0.4000,-0.0013,0.0000,0.0105,0.5013,0.1910,0.3895,0.5365,0.6630,0.993,0.369,0.834,3.700
13.822,left,0.5000,0.2022,0.4000,-0.0013,0.0000,0.0110,0.5013,0.2022,0.3890,0.5406,0.6660,0.993,0.361,0.831,3.706
13.908,left,0.5000,0.2109,0.4000,-0.0013,-0.0000,0.0103,0.5013,0.2109,0.3897,0.5439,0.6691,0.990,0.367,0.829,3.700
14.015,left,0.5000,0.2215,0.4000,-0.0013,0.0000,0.0098,0.5013,0.2215,0.3902,0.5481,0.6728,0.988,0.374,0.835,3.706
14.109,left,0.5000,0.2309,0.4000,-0.0013,0.0001,0.0103,0.5013,0.2308,0.3897,0.5519,0.6756,0.980,0.376,0.838,3.700
14.228,left,0.5000,0.2428,0.4000,-0.0013,0.0004,0.0094,0.5013,0.2425,0.3906,0.5569,0.6802,0.984,0.377,0.840,3.700
14.309,left,0.5000,0.2510,0.4000,-0.0014,0.0000,0.0096,0.5014,0.2510,0.3904,0.5607,0.6832,0.975,0.373,0.845,3.700
14.416,left,0.5000,0.2616,0.4000,-0.0014,0.0000,0.0094,0.5014,0.2616,0.3906,0.5655,0.6873,0.992,0.378,0.852,3.700
14.510,left,0.5000,0.2710,0.4000,-0.0010,0.0001,0.0109,0.5010,0.2709,0.3891,0.5695,0.6897,0.999,0.381,0.856,3.700
14.627,left,0.5000,0.2827,0.4000,-0.0015,0.0000,0.0113,0.5015,0.2827,0.3887,0.5757,0.6946,0.986,0.362,0.861,3.700
14.710,left,0.5000,0.2910,0.4000,-0.0015,0.0000,0.0107,0.5015,0.2910,0.3893,0.5798,0.6983,0.988,0.383,0.862,3.700
14.826,left,0.5000,0.3026,0.4000,-0.0009,0.0008,0.0100,0.5009,0.3018,0.3900,0.5848,0.7029,0.987,0.383,0.862,3.700
14.909,left,0.5000,0.3109,0.4000,-0.0010,-0.0000,0.0108,0.5010,0.3109,0.3892,0.5896,0.7065,0.965,0.364,0.866,3.700
15.026,left,0.5000,0.3226,0.4000,-0.0010,0.0004,0.0094,0.5010,0.3222,0.3906,0.5956,0.7123,0.992,0.360,0.865,3.706
15.109,left,0.5000,0.3309,0.4000,-0.0014,-0.0000,0.0098,0.5014,0.3309,0.3902,0.6008,0.7164,0.980,0.366,0.870,3.700
15.222,left,0.5000,0.3422,0.4000,-0.0015,-0.0000,0.0103,0.5015,0.3422,0.3897,0.6071,0.7215,0.990,0.374,0.875,3.700
15.316,left,0.5000,0.3516,0.4000,-0.0010,0.0000,0.0104,0.5010,0.3516,0.3896,0.6121,0.7255,0.993,0.380,0.876,3.700
15.425,left,0.5000,0.3625,0.4000,-0.0011,0.0005,0.0107,0.5011,0.3620,0.3893,0.6181,0.7305,0.988,0.371,0.877,3.700
15.519,left,0.5000,0.3719,0.4000,-0.0011,-0.0001,0.0115,0.5011,0.3720,0.3885,0.6241,0.7351,0.971,0.366,0.878,3.700
15.634,left,0.5000,0.3834,0.4000,-0.0011,-0.0001,0.0102,0.5011,0.3834,0.3898,0.6310,0.7417,0.985,0.364,0.879,3.700
15.711,left,0.5000,0.3911,0.4000,-0.0016,-0.0000,0.0102,0.5016,0.3912,0.3898,0.6361,0.7460,0.989,0.365,0.884,3.700
15.808,left,0.5000,0.4009,0.4000,-0.0016,0.0004,0.0103,0.5016,0.4004,0.3897,0.6418,0.7509,0.985,0.378,0.886,3.700
15.918,left,0.5000,0.4118,0.4000,-0.0011,0.0004,0.0108,0.5011,0.4114,0.3892,0.6483,0.7562,0.982,0.380,0.888,3.700
16.008,left,0.5000,0.4208,0.4000,-0.0016,-0.0001,0.0110,0.5016,0.4209,0.3890,0.6548,0.7616,0.984,0.360,0.892,3.700
16.117,left,0.5000,0.4317,0.4000,-0.0011,-0.0000,0.0117,0.5011,0.4317,0.3883,0.6614,0.7670,0.998,0.372,0.893,3.700
16.214,left,0.5000,0.4414,0.4000,-0.0015,-0.0000,0.0111,0.5015,0.4415,0.3889,0.6682,0.7731,0.995,0.365,0.897,3.700
16.325,left,0.5000,0.4525,0.4000,-0.0016,0.0007,0.0104,0.5016,0.4518,0.3896,0.6750,0.7794,0.992,0.372,0.897,3.700
16.412,left,0.5000,0.4612,0.4000,-0.0015,0.0002,0.0099,0.5015,0.4610,0.3901,0.6812,0.7850,0.975,0.380,0.898,3.700
16.508,left,0.5000,0.4708,0.4000,-0.0015,0.0002,0.0103,0.5015,0.4706,0.3897,0.6877,0.7905,0.994,0.378,0.900,3.700
16.616,left,0.5000,0.4816,0.4000,-0.0015,0.0000,0.0101,0.5015,0.4815,0.3899,0.6953,0.7971,1.001,0.371,0.904,3.700
16.708,left,0.5000,0.4908,0.4000,-0.0010,0.0001,0.0101,0.5010,0.4907,0.3899,0.7012,0.8024,1.004,0.369,0.906,3.700
16.820,left,0.5000,0.5000,0.4000,-0.0009,0.0002,0.0105,0.5009,0.4998,0.3895,0.7076,0.8077,0.997,0.359,0.912,3.700
16.908,left,0.5000,0.5000,0.4000,-0.0015,0.0006,0.0118,0.5015,0.4994,0.3882,0.7077,0.8072,0.995,0.357,0.915,3.700
17.025,left,0.5000,0.5000,0.4000,-0.0016,0.0002,0.0108,0.5016,0.4998,0.3892,0.7081,0.8080,0.984,0.377,0.917,3.700
17.119,left,0.5000,0.5000,0.4000,-0.0016,0.0011,0.0104,0.5016,0.4989,0.3896,0.7075,0.8077,0.995,0.376,0.918,3.700
17.221,left hover,0.5000,0.5000,0.4000,-0.0007,0.0002,0.0113,0.5007,0.4998,0.3887,0.7074,0.8072,0.972,0.388,0.925,3.700
17.321,left hover,0.5000,0.5000,0.4000,-0.0016,0.0001,0.0092,0.5016,0.4999,0.3908,0.7081,0.8088,0.988,0.357,0.928,3.700
17.441,left hover,0.5000,0.5000,0.4000,-0.0015,0.0000,0.0099,0.5015,0.5000,0.3901,0.7082,0.8085,0.993,0.367,0.931,3.700
17.522,left hover,0.5000,0.5000,0.4000,-0.0009,0.0007,0.0105,0.5009,0.4993,0.3895,0.7073,0.8074,1.002,0.367,0.933,3.700
17.607,left hover,0.5000,0.5000,0.4000,-0.0015,0.0001,0.0106,0.5015,0.4999,0.3894,0.7081,0.8081,0.982,0.364,0.928,3.700
17.719,left hover,0.5000,0.5000,0.4000,-0.0015,0.0006,0.0112,0.5015,0.4994,0.3888,0.7077,0.8075,0.994,0.378,0.933,3.700
17.808,left hover,0.5000,0.5000,0.4000,-0.0009,0.0007,0.0104,0.5009,0.4993,0.3896,0.7073,0.8075,0.974,0.381,0.932,3.700
17.923,left hover,0.5000,0.5000,0.4000,-0.0009,0.0007,0.0105,0.5009,0.4993,0.3895,0.7073,0.8074,0.976,0.371,0.936,3.700
18.009,left hover,0.5000,0.5000,0.4000,-0.0015,0.0001,0.0099,0.5015,0.4999,0.3901,0.7081,0.8084,0.975,0.370,0.938,3.700
18.125,left hover,0.5000,0.5000,0.4000,-0.0015,0.0001,0.0098,0.5015,0.4999,0.3902,0.7081,0.8085,0.984,0.384,0.939,3.700
18.218,left hover,0.5000,0.5000,0.4000,-0.0015,0.0000,0.0097,0.5015,0.5000,0.3903,0.7082,0.8086,0.982,0.383,0.939,3.700
18.341,left hover,0.5000,0.5000,0.4000,-0.0015,0.0006,0.0091,0.5015,0.4994,0.3909,0.7078,0.8085,0.977,0.386,0.939,3.700
18.417,left hover,0.5000,0.5000,0.4000,-0.0015,0.0006,0.0099,0.5015,0.4994,0.3901,0.7077,0.8082,0.964,0.388,0.942,3.700
18.510,left hover,0.5000,0.5000,0.4000,-0.0015,0.0001,0.0109,0.5015,0.4999,0.3891,0.7081,0.8079,0.970,0.390,0.944,3.700
18.608,left hover,0.5000,0.5000,0.4000,-0.0015,0.0002,0.0101,0.5015,0.4998,0.3899,0.7080,0.8083,0.985,0.394,0.946,3.700
18.707,left hover,0.5000,0.5000,0.4000,-0.0015,0.0006,0.0108,0.5015,0.4994,0.3892,0.7078,0.8077,0.982,0.397,0.942,3.700
18.807,left hover,0.5000,0.5000,0.4000,-0.0014,0.0004,0.0104,0.5014,0.4996,0.3896,0.7078,0.8079,0.972,0.397,0.945,3.700
18.908,left hover,0.5000,0.5000,0.4000,-0.0016,0.0007,0.0106,0.5016,0.4993,0.3894,0.7077,0.8078,0.984,0.401,0.942,3.700
19.007,left hover,0.5000,0.5000,0.4000,-0.0016,0.0002,0.0111,0.5016,0.4998,0.3889,0.7081,0.8078,0.980,0.393,0.942,3.700
19.108,left hover,0.5000,0.5000,0.4000,-0.0016,0.0002,0.0106,0.5016,0.4998,0.3894,0.7081,0.8081,1.003,0.400,0.940,3.700
19.207,left hover,0.5000,0.5000,0.4000,-0.0012,0.0002,0.0103,0.5012,0.4998,0.3897,0.7078,0.8080,0.996,0.392,0.939,3.700
19.307,left hover,0.5000,0.5000,0.4000,-0.0016,0.0007,0.0104,0.5016,0.4993,0.3896,0.7078,0.8079,0.990,0.376,0.944,3.700
19.408,left hover,0.5000,0.5000,0.4000,-0.0016,0.0008,0.0096,0.5016,0.4992,0.3904,0.7077,0.8082,0.979,0.395,0.945,3.700
19.508,left hover,0.5000,0.5000,0.4000,-0.0016,0.0002,0.0099,0.5016,0.4998,0.3901,0.7081,0.8084,0.976,0.394,0.948,3.700
19.608,left hover,0.5000,0.5000,0.4000,-0.0017,0.0005,0.0098,0.5017,0.4995,0.3902,0.7079,0.8084,0.993,0.393,0.949,3.700
19.707,left hover,0.5000,0.5000,0.4000,-0.0017,0.0002,0.0111,0.5017,0.4998,0.3889,0.7082,0.8080,0.984,0.400,0.949,3.700
19.807,left hover,0.5000,0.5000,0.4000,-0.0017,0.0002,0.0111,0.5017,0.4998,0.3889,0.7082,0.8080,0.995,0.405,0.950,3.700
19.908,left hover,0.5000,0.5000,0.4000,-0.0018,0.0003,0.0118,0.5018,0.4997,0.3882,0.7082,0.8077,0.996,0.399,0.948,3.700
20.007,left hover,0.5000,0.5000,0.4000,-0.0019,0.0004,0.0108,0.5019,0.4996,0.3892,0.7082,0.8081,0.993,0.392,0.947,3.700
20.107,left hover,0.5000,0.5000,0.4000,-0.0021,0.0008,0.0103,0.5021,0.4992,0.3897,0.7081,0.8082,0.989,0.374,0.949,3.700
20.208,left hover,0.5000,0.5000,0.4000,-0.0022,0.0004,0.0110,0.5022,0.4996,0.3890,0.7083,0.8081,0.984,0.364,0.947,3.700
20.308,left hover,0.5000,0.5000,0.4000,-0.0021,0.0003,0.0111,0.5021,0.4997,0.3889,0.7084,0.8082,1.002,0.365,0.952,3.700
20.408,left hover,0.5000,0.5000,0.4000,-0.0021,0.0011,0.0102,0.5021,0.4989,0.3898,0.7079,0.8081,1.013,0.360,0.954,3.700
20.506,left hover,0.5000,0.5000,0.4000,-0.0021,0.0004,0.0097,0.5021,0.4996,0.3903,0.7083,0.8087,1.001,0.364,0.955,3.700
20.607,left hover,0.5000,0.5000,0.4000,-0.0021,0.0003,0.0097,0.5021,0.4997,0.3903,0.7084,0.8088,1.024,0.366,0.955,3.700
20.706,left hover,0.5000,0.5000,0.4000,-0.0021,0.0002,0.0115,0.5021,0.4998,0.3885,0.7084,0.8080,1.028,0.367,0.958,3.700
20.807,left hover,0.5000,0.5000,0.4000,-0.0022,0.0011,0.0100,0.5022,0.4989,0.3900,0.7079,0.8082,1.025,0.367,0.957,3.700
20.907,left hover,0.5000,0.5000,0.4000,-0.0016,0.0003,0.0097,0.5016,0.4997,0.3903,0.7081,0.8085,0.997,0.369,0.960,3.700
21.007,left hover,0.5000,0.5000,0.4000,-0.0022,0.0002,0.0098,0.5022,0.4998,0.3902,0.7085,0.8089,1.017,0.363,0.960,3.700
21.107,left hover,0.5000,0.5000,0.4000,-0.0023,0.0009,0.0113,0.5023,0.4991,0.3887,0.7081,0.8078,1.009,0.374,0.958,3.700
21.206,left hover,0.5000,0.5000,0.4000,-0.0023,0.0009,0.0100,0.5023,0.4991,0.3900,0.7081,0.8084,0.988,0.383,0.957,3.700
21.307,left hover,0.5000,0.5000,0.4000,-0.0023,0.0003,0.0100,0.5023,0.4997,0.3900,0.7085,0.8088,0.997,0.394,0.956,3.700
21.407,left hover,0.5000,0.5000,0.4000,-0.0018,0.0000,0.0109,0.5018,0.5000,0.3891,0.7083,0.8082,1.015,0.387,0.959,3.700
21.507,left hover,0.5000,0.5000,0.4000,-0.0018,0.0005,0.0106,0.5018,0.4995,0.3894,0.7081,0.8081,1.019,0.375,0.962,3.700
21.607,left hover,0.5000,0.5000,0.4000,-0.0019,0.0004,0.0112,0.5019,0.4996,0.3888,0.7082,0.8079,1.005,0.384,0.964,3.700
21.706,left hover,0.5000,0.5000,0.4000,-0.0023,0.0005,0.0108,0.5023,0.4995,0.3892,0.7084,0.8083,1.003,0.384,0.963,3.700
21.806,left hover,0.5000,0.5000,0.4000,-0.0018,0.0000,0.0106,0.5018,0.5000,0.3894,0.7084,0.8084,0.993,0.393,0.967,3.700
21.907,left hover,0.5000,0.5000,0.4000,-0.0022,0.0000,0.0110,0.5022,0.5000,0.3890,0.7087,0.8084,1.010,0.373,0.968,3.700
22.007,left hover,0.5000,0.5000,0.4000,-0.0022,0.0004,0.0109,0.5022,0.4996,0.3891,0.7084,0.8082,1.006,0.381,0.962,3.700
22.107,left hover,0.5000,0.5000,0.4000,-0.0022,0.0001,0.0104,0.5022,0.4999,0.3896,0.7086,0.8086,0.991,0.379,0.967,3.700
22.207,left hover,0.5000,0.5000,0.4000,-0.0022,0.0002,0.0110,0.5022,0.4998,0.3890,0.7085,0.8083,0.997,0.377,0.969,3.700
22.306,left hover,0.5000,0.5000,0.4000,-0.0022,0.0003,0.0093,0.5022,0.4997,0.3907,0.7085,0.8090,0.992,0.375,0.968,3.700
22.406,left hover,0.5000,0.5000,0.4000,-0.0022,0.0002,0.0109,0.5022,0.4998,0.3891,0.7085,0.8083,0.992,0.385,0.970,3.700
22.506,left hover,0.5000,0.5000,0.4000,-0.0022,0.0003,0.0110,0.5022,0.4997,0.3890,0.7085,0.8083,0.992,0.385,0.970,3.700
22.607,left hover,0.5000,0.5000,0.4000,-0.0022,0.0002,0.0102,0.5022,0.4998,0.3898,0.7085,0.8087,0.994,0.380,0.971,3.700
22.708,left hover,0.5000,0.5000,0.4000,-0.0022,0.0003,0.0114,0.5022,0.4997,0.3886,0.7085,0.8080,1.001,0.381,0.971,3.700
22.806,left hover,0.5000,0.5000,0.4000,-0.0022,0.0003,0.0105,0.5022,0.4997,0.3895,0.7084,0.8084,0.991,0.385,0.968,3.700
22.906,left hover,0.5000,0.5000,0.4000,-0.0022,0.0008,0.0102,0.5022,0.4992,0.3898,0.7081,0.8083,0.983,0.380,0.967,3.700
23.007,left hover,0.5000,0.5000,0.4000,-0.0022,0.0003,0.0119,0.5022,0.4997,0.3881,0.7085,0.8078,0.977,0.389,0.968,3.700
23.106,left hover,0.5000,0.5000,0.4000,-0.0022,0.0007,0.0108,0.5022,0.4993,0.3892,0.7081,0.8080,0.993,0.389,0.968,3.700
23.206,left hover,0.5000,0.5000,0.4000,-0.0021,0.0004,0.0092,0.5021,0.4996,0.3908,0.7083,0.8090,0.984,0.388,0.970,3.700
23.306,left hover,0.5000,0.5000,0.4000,-0.0014,0.0004,0.0104,0.5014,0.4996,0.3896,0.7078,0.8079,0.989,0.390,0.971,3.700
23.407,left hover,0.5000,0.5000,0.4000,-0.0020,0.0003,0.0098,0.5020,0.4997,0.3902,0.7083,0.8087,0.981,0.377,0.974,3.700
23.507,left hover,0.5000,0.5000,0.4000,-0.0021,0.0009,0.0111,0.5021,0.4991,0.3889,0.7080,0.8078,0.982,0.388,0.971,3.700
23.609,left hover,0.5000,0.5000,0.4000,-0.0022,0.0003,0.0112,0.5022,0.4997,0.3888,0.7085,0.8081,0.963,0.386,0.973,3.700
23.706,left hover,0.5000,0.5000,0.4000,-0.0022,0.0002,0.0112,0.5022,0.4998,0.3888,0.7085,0.8082,0.982,0.388,0.972,3.700
23.806,left hover,0.5000,0.5000,0.4000,-0.0021,0.0001,0.0111,0.5021,0.4999,0.3889,0.7086,0.8083,0.986,0.396,0.976,3.700
23.906,left hover,0.5000,0.5000,0.4000,-0.0021,0.0001,0.0100,0.5021,0.4999,0.3900,0.7085,0.8087,0.983,0.381,0.976,3.700
24.006,left hover,0.5000,0.5000,0.4000,-0.0021,0.0001,0.0112,0.5021,0.4999,0.3888,0.7085,0.8082,0.981,0.378,0.978,3.700
24.107,left hover,0.5000,0.5000,0.4000,-0.0021,0.0001,0.0116,0.5021,0.4999,0.3884,0.7085,0.8080,0.987,0.373,0.975,3.700
24.206,left hover,0.5000,0.5000,0.4000,-0.0021,0.0007,0.0112,0.5021,0.4993,0.3888,0.7081,0.8078,0.978,0.379,0.981,3.700
24.306,left hover,0.5000,0.5000,0.4000,-0.0021,0.0009,0.0109,0.5021,0.4991,0.3891,0.7080,0.8079,0.965,0.383,0.985,3.700
24.406,left hover,0.5000,0.5000,0.4000,-0.0015,0.0001,0.0104,0.5015,0.4999,0.3896,0.7081,0.8081,0.960,0.385,0.982,3.700
24.506,left hover,0.5000,0.5000,0.4000,-0.0021,0.0001,0.0115,0.5021,0.4999,0.3885,0.7085,0.8080,0.979,0.369,0.981,3.700
24.606,left hover,0.5000,0.5000,0.4000,-0.0016,0.0006,0.0105,0.5016,0.4994,0.3895,0.7078,0.8079,0.985,0.395,0.978,3.700
24.706,left hover,0.5000,0.5000,0.4000,-0.0021,-0.0000,0.0111,0.5021,0.5000,0.3889,0.7086,0.8083,0.971,0.378,0.980,3.700
24.805,left hover,0.5000,0.5000,0.4000,-0.0017,0.0005,0.0106,0.5017,0.4995,0.3894,0.7079,0.8080,0.990,0.394,0.979,3.700
24.906,left hover,0.5000,0.5000,0.4000,-0.0017,0.0000,0.0110,0.5017,0.5000,0.3890,0.7083,0.8081,0.981,0.381,0.978,3.700
25.005,left hover,0.5000,0.5000,0.4000,-0.0017,-0.0000,0.0105,0.5017,0.5000,0.3895,0.7083,0.8084,0.993,0.378,0.980,3.700
25.105,left hover,0.5000,0.5000,0.4000,-0.0017,0.0003,0.0103,0.5017,0.4997,0.3897,0.7081,0.8083,0.991,0.378,0.980,3.700
25.205,left hover,0.5000,0.5000,0.4000,-0.0021,0.0000,0.0110,0.5021,0.5000,0.3890,0.7086,0.8083,0.980,0.380,0.983,3.700
25.306,left hover,0.5000,0.5000,0.4000,-0.0021,0.0000,0.0106,0.5021,0.5000,0.3894,0.7086,0.8085,0.993,0.397,0.985,3.700
25.405,left hover,0.5000,0.5000,0.4000,-0.0021,0.0000,0.0104,0.5021,0.5000,0.3896,0.7085,0.8086,0.993,0.388,0.983,3.700
25.506,left hover,0.5000,0.5000,0.4000,-0.0021,0.0001,0.0105,0.5021,0.4999,0.3895,0.7085,0.8086,0.988,0.375,0.984,3.700
25.606,left hover,0.5000,0.5000,0.4000,-0.0021,0.0002,0.0113,0.5021,0.4998,0.3887,0.7085,0.8081,0.984,0.374,0.986,3.700
25.705,left hover,0.5000,0.5000,0.4000,-0.0021,0.0007,0.0124,0.5021,0.4993,0.3876,0.7081,0.8073,0.986,0.377,0.989,3.700
25.806,left hover,0.5000,0.5000,0.4000,-0.0022,0.0005,0.0111,0.5022,0.4995,0.3889,0.7082,0.8080,0.969,0.381,0.992,3.700
25.906,left hover,0.5000,0.5000,0.4000,-0.0022,0.0007,0.0102,0.5022,0.4993,0.3898,0.7082,0.8084,0.976,0.387,0.992,3.700
26.007,left hover,0.5000,0.5000,0.4000,-0.0016,0.0002,0.0106,0.5016,0.4998,0.3894,0.7081,0.8081,0.970,0.392,0.993,3.700
26.105,left hover,0.5000,0.5000,0.4000,-0.0022,0.0007,0.0103,0.5022,0.4993,0.3897,0.7082,0.8083,0.981,0.369,0.996,3.700
26.206,left hover,0.5000,0.5000,0.4000,-0.0022,0.0008,0.0089,0.5022,0.4992,0.3911,0.7081,0.8089,0.966,0.389,0.995,3.700
26.306,left hover,0.5000,0.5000,0.4000,-0.0022,0.0007,0.0096,0.5022,0.4993,0.3904,0.7081,0.8086,0.971,0.380,0.999,3.700
26.405,left hover,0.5000,0.5000,0.4000,-0.0017,0.0005,0.0107,0.5017,0.4995,0.3893,0.7079,0.8079,0.971,0.373,0.999,3.700
26.505,left hover,0.5000,0.5000,0.4000,-0.0022,0.0006,0.0105,0.5022,0.4994,0.3895,0.7083,0.8083,0.983,0.363,0.999,3.700
26.606,left hover,0.5000,0.5000,0.4000,-0.0022,0.0001,0.0107,0.5022,0.4999,0.3893,0.7086,0.8084,0.979,0.378,0.999,3.700
26.705,left hover,0.5000,0.5000,0.4000,-0.0022,0.0001,0.0116,0.5022,0.4999,0.3884,0.7086,0.8081,0.986,0.367,0.999,3.695
26.805,left hover,0.5000,0.5000,0.4000,-0.0018,-0.0000,0.0110,0.5018,0.5000,0.3890,0.7084,0.8082,0.991,0.380,1.001,3.695
26.905,left hover,0.5000,0.5000,0.4000,-0.0023,0.0005,0.0113,0.5023,0.4995,0.3887,0.7084,0.8080,0.993,0.374,1.000,3.700
27.005,left hover,0.5000,0.5000,0.4000,-0.0023,-0.0000,0.0099,0.5023,0.5000,0.3901,0.7087,0.8090,0.977,0.383,1.003,3.700
27.104,left hover,0.5000,0.5000,0.4000,-0.0023,0.0001,0.0098,0.5023,0.4999,0.3902,0.7087,0.8090,0.998,0.383,1.002,3.700
27.205,left hover,0.5000,0.5000,0.4000,-0.0023,-0.0000,0.0098,0.5023,0.5000,0.3902,0.7088,0.8091,0.989,0.382,0.999,3.695
27.304,left hover,0.5000,0.5000,0.4000,-0.0023,-0.0000,0.0104,0.5023,0.5000,0.3896,0.7087,0.8088,0.995,0.386,1.001,3.700
27.405,left hover,0.5000,0.5000,0.4000,-0.0023,0.0001,0.0109,0.5023,0.4999,0.3891,0.7087,0.8085,0.996,0.385,1.002,3.695
27.505,left hover,0.5000,0.5000,0.4000,-0.0024,0.0009,0.0100,0.5024,0.4991,0.3900,0.7082,0.8085,0.993,0.383,1.002,3.700
27.605,left hover,0.5000,0.5000,0.4000,-0.0018,0.0001,0.0108,0.5018,0.4999,0.3892,0.7083,0.8082,0.971,0.385,1.004,3.700
27.705,left hover,0.5000,0.5000,0.4000,-0.0023,0.0000,0.0104,0.5023,0.5000,0.3896,0.7087,0.8087,1.002,0.372,1.010,3.695
