time_s,phase,target_x_m,target_y_m,target_z_m,actual_x_m,actual_y_m,actual_z_m,error_x_m,error_y_m,error_z_m,error_xy_m,error_3d_m,roll_deg,pitch_deg,yaw_deg,vbat_v
0.153,init,0.0000,0.0000,0.0000,-0.0003,0.0005,0.0108,0.0003,-0.0005,-0.0108,0.0006,0.0108,0.000,0.000,0.000,3.695
0.213,init,0.0000,0.0000,0.0000,-0.0004,0.0009,0.0115,0.0004,-0.0009,-0.0115,0.0010,0.0115,0.946,0.376,0.278,3.695
0.314,init,0.0000,0.0000,0.0000,-0.0004,0.0008,0.0109,0.0004,-0.0008,-0.0109,0.0008,0.0110,0.937,0.383,0.289,3.695
0.485,init,0.0000,0.0000,0.0000,-0.0004,0.0004,0.0103,0.0004,-0.0004,-0.0103,0.0005,0.0103,0.947,0.391,0.299,3.700
0.534,init,0.0000,0.0000,0.0000,-0.0003,0.0002,0.0113,0.0003,-0.0002,-0.0113,0.0004,0.0114,0.961,0.393,0.309,3.695
0.624,init,0.0000,0.0000,0.0000,-0.0003,0.0003,0.0111,0.0003,-0.0003,-0.0111,0.0004,0.0111,0.965,0.392,0.316,3.695
0.718,takeoff,0.0000,0.0000,0.0074,-0.0003,0.0009,0.0120,0.0003,-0.0009,-0.0046,0.0009,0.0047,0.960,0.388,0.323,3.695
0.819,takeoff,0.0000,0.0000,0.0209,-0.0005,0.0013,0.0122,0.0005,-0.0013,0.0087,0.0014,0.0088,0.942,0.392,0.331,3.695
0.940,takeoff,0.0000,0.0000,0.0370,-0.0005,0.0002,0.0129,0.0005,-0.0002,0.0241,0.0005,0.0241,0.936,0.395,0.338,3.695
1.026,takeoff,0.0000,0.0000,0.0485,-0.0004,0.0001,0.0126,0.0004,-0.0001,0.0359,0.0004,0.0359,0.963,0.387,0.348,3.695
1.136,takeoff,0.0000,0.0000,0.0632,-0.0004,0.0001,0.0113,0.0004,-0.0001,0.0519,0.0004,0.0519,0.962,0.390,0.354,3.695
1.214,takeoff,0.0000,0.0000,0.0735,-0.0004,0.0001,0.0107,0.0004,-0.0001,0.0629,0.0004,0.0629,0.960,0.389,0.362,3.695
1.338,takeoff,0.0000,0.0000,0.0901,-0.0003,0.0001,0.0102,0.0003,-0.0001,0.0799,0.0003,0.0799,0.956,0.389,0.372,3.695
1.413,takeoff,0.0000,0.0000,0.1001,-0.0003,0.0000,0.0111,0.0003,-0.0000,0.0889,0.0003,0.0889,0.956,0.399,0.381,3.695
1.543,takeoff,0.0000,0.0000,0.1174,-0.0003,0.0001,0.0111,0.0003,-0.0001,0.1063,0.0003,0.1063,0.956,0.385,0.388,3.695
1.613,takeoff,0.0000,0.0000,0.1267,0.0002,-0.0001,0.0111,-0.0002,0.0001,0.1157,0.0002,0.1157,0.961,0.384,0.392,3.695
1.743,takeoff,0.0000,0.0000,0.1441,-0.0003,0.0003,0.0111,0.0003,-0.0003,0.1331,0.0005,0.1331,0.961,0.369,0.398,3.695
1.814,takeoff,0.0000,0.0000,0.1535,0.0002,-0.0000,0.0110,-0.0002,0.0000,0.1425,0.0002,0.1425,0.950,0.375,0.404,3.695
1.938,takeoff,0.0000,0.0000,0.1700,0.0002,0.0005,0.0113,-0.0002,-0.0005,0.1587,0.0005,0.1587,0.963,0.368,0.415,3.695
2.013,takeoff,0.0000,0.0000,0.1801,-0.0003,0.0000,0.0111,0.0003,-0.0000,0.1690,0.0003,0.1690,0.949,0.381,0.422,3.695
2.146,takeoff,0.0000,0.0000,0.1978,-0.0003,0.0007,0.0111,0.0003,-0.0007,0.1867,0.0008,0.1867,0.956,0.397,0.428,3.695
2.213,takeoff,0.0000,0.0000,0.2068,-0.0002,0.0001,0.0113,0.0002,-0.0001,0.1955,0.0003,0.1955,0.937,0.393,0.433,3.695
2.345,takeoff,0.0000,0.0000,0.2244,-0.0002,0.0000,0.0121,0.0002,-0.0000,0.2123,0.0002,0.2123,0.952,0.392,0.439,3.695
2.412,takeoff,0.0000,0.0000,0.2333,-0.0002,0.0005,0.0125,0.0002,-0.0005,0.2208,0.0005,0.2208,0.955,0.388,0.450,3.695
2.541,takeoff,0.0000,0.0000,0.2505,-0.0001,0.0003,0.0118,0.0001,-0.0003,0.2388,0.0004,0.2388,0.942,0.388,0.454,3.695
2.625,takeoff,0.0000,0.0000,0.2617,-0.0002,0.0001,0.0107,0.0002,-0.0001,0.2510,0.0002,0.2510,0.943,0.394,0.462,3.695
2.746,takeoff,0.0000,0.0000,0.2778,0.0002,0.0001,0.0114,-0.0002,-0.0001,0.2664,0.0002,0.2664,0.955,0.395,0.467,3.695
2.824,takeoff,0.0000,0.0000,0.2882,-0.0002,0.0001,0.0113,0.0002,-0.0001,0.2769,0.0002,0.2769,0.959,0.387,0.476,3.695
2.930,takeoff,0.0000,0.0000,0.3023,-0.0002,0.0007,0.0114,0.0002,-0.0007,0.2909,0.0007,0.2909,0.957,0.385,0.480,3.695
3.025,takeoff,0.0000,0.0000,0.3150,0.0005,0.0004,0.0111,-0.0005,-0.0004,0.3039,0.0006,0.3039,0.946,0.377,0.487,3.695
3.135,takeoff,0.0000,0.0000,0.3297,-0.0002,0.0004,0.0104,0.0002,-0.0004,0.3193,0.0004,0.3193,0.956,0.352,0.498,3.695
3.227,takeoff,0.0000,0.0000,0.3419,0.0003,0.0007,0.0108,-0.0003,-0.0007,0.3312,0.0008,0.3312,0.961,0.379,0.504,3.695
3.321,takeoff,0.0000,0.0000,0.3545,-0.0003,0.0009,0.0118,0.0003,-0.0009,0.3428,0.0010,0.3428,0.959,0.373,0.508,3.695
3.419,takeoff,0.0000,0.0000,0.3675,-0.0002,0.0009,0.0115,0.0002,-0.0009,0.3560,0.0009,0.3560,0.950,0.386,0.514,3.695
3.537,takeoff,0.0000,0.0000,0.3833,0.0003,0.0002,0.0114,-0.0003,-0.0002,0.3719,0.0003,0.3719,0.952,0.383,0.521,3.695
3.618,takeoff,0.0000,0.0000,0.3941,-0.0002,0.0002,0.0103,0.0002,-0.0002,0.3838,0.0003,0.3838,0.971,0.360,0.532,3.695
3.733,takeoff,0.0000,0.0000,0.4000,-0.0002,0.0001,0.0109,0.0002,-0.0001,0.3891,0.0002,0.3891,0.970,0.384,0.536,3.695
3.828,takeoff,0.0000,0.0000,0.4000,-0.0003,0.0008,0.0108,0.0003,-0.0008,0.3892,0.0008,0.3892,0.977,0.380,0.541,3.695
3.927,hover,0.0000,0.0000,0.4000,-0.0003,0.0002,0.0120,0.0003,-0.0002,0.3880,0.0004,0.3880,0.965,0.384,0.545,3.695
4.013,hover,0.0000,0.0000,0.4000,0.0002,0.0007,0.0123,-0.0002,-0.0007,0.3877,0.0007,0.3877,0.980,0.384,0.550,3.695
4.121,hover,0.0000,0.0000,0.4000,-0.0004,0.0002,0.0109,0.0004,-0.0002,0.3891,0.0004,0.3891,0.966,0.365,0.553,3.695
4.212,hover,0.0000,0.0000,0.4000,-0.0003,0.0002,0.0112,0.0003,-0.0002,0.3888,0.0004,0.3888,0.974,0.381,0.558,3.695
4.315,hover,0.0000,0.0000,0.4000,-0.0004,0.0002,0.0109,0.0004,-0.0002,0.3891,0.0004,0.3891,0.976,0.367,0.558,3.695
4.412,hover,0.0000,0.0000,0.4000,-0.0004,0.0001,0.0108,0.0004,-0.0001,0.3892,0.0004,0.3892,0.974,0.372,0.566,3.695
4.514,hover,0.0000,0.0000,0.4000,-0.0004,0.0001,0.0102,0.0004,-0.0001,0.3898,0.0005,0.3898,0.972,0.365,0.577,3.695
4.640,hover,0.0000,0.0000,0.4000,-0.0005,0.0000,0.0111,0.0005,-0.0000,0.3889,0.0005,0.3889,0.974,0.360,0.579,3.695
4.713,hover,0.0000,0.0000,0.4000,-0.0005,0.0011,0.0107,0.0005,-0.0011,0.3893,0.0012,0.3894,0.973,0.353,0.580,3.695
4.831,hover,0.0000,0.0000,0.4000,-0.0004,-0.0000,0.0107,0.0004,0.0000,0.3893,0.0004,0.3893,0.949,0.350,0.583,3.695
4.919,hover,0.0000,0.0000,0.4000,0.0001,-0.0001,0.0101,-0.0001,0.0001,0.3899,0.0002,0.3899,0.970,0.353,0.589,3.695
5.029,hover,0.0000,0.0000,0.4000,-0.0005,0.0003,0.0106,0.0005,-0.0003,0.3894,0.0006,0.3894,0.973,0.337,0.591,3.695
5.121,hover,0.0000,0.0000,0.4000,-0.0005,0.0004,0.0119,0.0005,-0.0004,0.3881,0.0006,0.3881,0.962,0.358,0.596,3.695
5.226,forward,0.0094,0.0000,0.4000,0.0003,-0.0001,0.0131,0.0091,0.0001,0.3869,0.0091,0.3870,0.950,0.337,0.601,3.695
5.312,forward,0.0180,0.0000,0.4000,-0.0004,-0.0001,0.0122,0.0185,0.0001,0.3878,0.0185,0.3882,0.956,0.316,0.604,3.695
5.420,forward,0.0289,0.0000,0.4000,0.0001,-0.0002,0.0119,0.0287,0.0002,0.3881,0.0287,0.3891,0.967,0.340,0.606,3.695
5.512,forward,0.0380,0.0000,0.4000,-0.0004,-0.0001,0.0113,0.0384,0.0001,0.3887,0.0384,0.3906,0.963,0.331,0.615,3.695
5.631,forward,0.0500,0.0000,0.4000,0.0002,0.0005,0.0117,0.0498,-0.0005,0.3883,0.0498,0.3915,0.952,0.346,0.620,3.695
5.711,forward,0.0579,0.0000,0.4000,-0.0005,0.0006,0.0117,0.0584,-0.0006,0.3883,0.0584,0.3927,0.931,0.336,0.625,3.695
5.828,forward,0.0697,0.0000,0.4000,-0.0004,-0.0000,0.0122,0.0701,0.0000,0.3878,0.0701,0.3940,0.923,0.360,0.630,3.695
5.915,forward,0.0783,0.0000,0.4000,-0.0005,-0.0001,0.0113,0.0788,0.0001,0.3887,0.0788,0.3966,0.936,0.356,0.634,3.695
6.026,forward,0.0894,0.0000,0.4000,-0.0005,-0.0001,0.0122,0.0899,0.0001,0.3878,0.0899,0.3980,0.948,0.360,0.635,3.695
6.119,forward,0.0988,0.0000,0.4000,0.0001,-0.0002,0.0100,0.0987,0.0002,0.3900,0.0987,0.4023,0.947,0.365,0.641,3.695
6.229,forward,0.1097,0.0000,0.4000,-0.0005,-0.0003,0.0105,0.1103,0.0003,0.3895,0.1103,0.4048,0.954,0.356,0.640,3.695
6.321,forward,0.1189,0.0000,0.4000,-0.0006,0.0003,0.0115,0.1195,-0.0003,0.3885,0.1195,0.4065,0.953,0.370,0.644,3.695
6.434,forward,0.1302,0.0000,0.4000,-0.0006,-0.0002,0.0113,0.1308,0.0002,0.3887,0.1308,0.4101,0.936,0.368,0.651,3.695
6.526,forward,0.1394,0.0000,0.4000,-0.0005,0.0003,0.0110,0.1400,-0.0003,0.3890,0.1400,0.4134,0.959,0.378,0.655,3.695
6.629,forward,0.1498,0.0000,0.4000,-0.0005,0.0002,0.0119,0.1503,-0.0002,0.3881,0.1503,0.4162,0.943,0.377,0.658,3.695
6.725,forward,0.1593,0.0000,0.4000,-0.0006,-0.0001,0.0120,0.1600,0.0001,0.3880,0.1600,0.4197,0.947,0.376,0.661,3.695
6.834,forward,0.1702,0.0000,0.4000,-0.0006,0.0002,0.0126,0.1708,-0.0002,0.3874,0.1708,0.4234,0.963,0.391,0.665,3.695
6.912,forward,0.1780,0.0000,0.4000,-0.0007,-0.0002,0.0130,0.1787,0.0002,0.3870,0.1787,0.4262,0.953,0.390,0.668,3.695
7.049,forward,0.1917,0.0000,0.4000,-0.0007,0.0003,0.0115,0.1924,-0.0003,0.3885,0.1924,0.4335,0.972,0.402,0.672,3.695
7.113,forward,0.1982,0.0000,0.4000,-0.0003,0.0003,0.0108,0.1984,-0.0003,0.3892,0.1984,0.4369,0.959,0.394,0.674,3.695
7.249,forward,0.2117,0.0000,0.4000,-0.0003,-0.0001,0.0109,0.2120,0.0001,0.3891,0.2120,0.4431,0.965,0.383,0.679,3.695
7.313,forward,0.2181,0.0000,0.4000,-0.0007,-0.0002,0.0106,0.2188,0.0002,0.3894,0.2188,0.4467,0.980,0.386,0.681,3.695
7.445,forward,0.2314,0.0000,0.4000,-0.0007,0.0003,0.0111,0.2321,-0.0003,0.3889,0.2321,0.4529,0.987,0.398,0.688,3.695
7.513,forward,0.2381,0.0000,0.4000,-0.0007,-0.0001,0.0112,0.2389,0.0001,0.3888,0.2389,0.4563,0.969,0.386,0.690,3.695
7.644,forward,0.2512,0.0000,0.4000,-0.0007,0.0003,0.0117,0.2520,-0.0003,0.3883,0.2520,0.4628,0.982,0.385,0.696,3.695
7.712,forward,0.2580,0.0000,0.4000,-0.0007,0.0004,0.0115,0.2587,-0.0004,0.3885,0.2587,0.4667,0.975,0.382,0.705,3.695
7.813,forward,0.2681,0.0000,0.4000,-0.0007,-0.0001,0.0105,0.2689,0.0001,0.3895,0.2689,0.4732,0.961,0.375,0.706,3.695
7.910,forward,0.2779,0.0000,0.4000,-0.0007,-0.0001,0.0106,0.2785,0.0001,0.3894,0.2785,0.4788,0.986,0.381,0.710,3.695
8.047,forward,0.2915,0.0000,0.4000,-0.0007,-0.0001,0.0104,0.2922,0.0001,0.3896,0.2922,0.4870,0.982,0.369,0.714,3.695
8.111,forward,0.2979,0.0000,0.4000,-0.0007,-0.0001,0.0113,0.2986,0.0001,0.3887,0.2986,0.4902,0.985,0.365,0.720,3.695
8.213,forward,0.3081,0.0000,0.4000,-0.0001,-0.0001,0.0118,0.3081,0.0001,0.3882,0.3081,0.4957,0.976,0.352,0.724,3.695
8.314,forward,0.3182,0.0000,0.4000,-0.0002,-0.0002,0.0115,0.3184,0.0002,0.3885,0.3184,0.5023,0.974,0.338,0.723,3.695
8.412,forward,0.3280,0.0000,0.4000,-0.0007,-0.0002,0.0102,0.3287,0.0002,0.3898,0.3287,0.5099,0.980,0.341,0.725,3.695
8.512,forward,0.3380,0.0000,0.4000,-0.0007,-0.0002,0.0114,0.3387,0.0002,0.3886,0.3387,0.5155,0.980,0.357,0.724,3.695
8.612,forward,0.3480,0.0000,0.4000,-0.0001,-0.0001,0.0127,0.3481,0.0001,0.3873,0.3481,0.5207,0.985,0.355,0.727,3.695
8.720,forward,0.3588,0.0000,0.4000,-0.0006,-0.0002,0.0128,0.3595,0.0002,0.3872,0.3595,0.5283,0.979,0.336,0.731,3.695
8.817,forward,0.3685,0.0000,0.4000,-0.0007,-0.0001,0.0116,0.3692,0.0001,0.3884,0.3692,0.5359,0.976,0.348,0.738,3.695
8.934,forward,0.3802,0.0000,0.4000,-0.0006,-0.0001,0.0123,0.3809,0.0001,0.3877,0.3809,0.5435,0.972,0.355,0.740,3.695
9.026,forward,0.3894,0.0000,0.4000,-0.0002,-0.0000,0.0099,0.3896,0.0000,0.3901,0.3896,0.5513,0.968,0.345,0.735,3.695
9.112,forward,0.3980,0.0000,0.4000,-0.0007,-0.0001,0.0109,0.3986,0.0001,0.3891,0.3986,0.5571,0.970,0.332,0.738,3.695
9.226,forward,0.4095,0.0000,0.4000,-0.0006,-0.0000,0.0109,0.4100,0.0000,0.3891,0.4100,0.5653,0.976,0.353,0.741,3.695
9.327,forward,0.4195,0.0000,0.4000,-0.0005,0.0000,0.0113,0.4200,-0.0000,0.3887,0.4200,0.5722,0.974,0.353,0.747,3.695
9.438,forward,0.4307,0.0000,0.4000,-0.0006,-0.0001,0.0119,0.4312,0.0001,0.3881,0.4312,0.5802,0.973,0.357,0.749,3.695
9.518,forward,0.4386,0.0000,0.4000,-0.0006,0.0005,0.0105,0.4392,-0.0005,0.3895,0.4392,0.5870,0.977,0.376,0.756,3.695
9.613,forward,0.4481,0.0000,0.4000,-0.0006,-0.0001,0.0103,0.4487,0.0001,0.3897,0.4487,0.5943,0.959,0.374,0.759,3.695
9.743,forward,0.4611,0.0000,0.4000,-0.0006,0.0005,0.0112,0.4617,-0.0005,0.3888,0.4617,0.6036,0.972,0.370,0.760,3.695
9.816,forward,0.4684,0.0000,0.4000,-0.0005,0.0000,0.0099,0.4689,-0.0000,0.3901,0.4689,0.6100,0.947,0.367,0.760,3.695
9.911,forward,0.4779,0.0000,0.4000,-0.0006,-0.0001,0.0106,0.4785,0.0001,0.3894,0.4785,0.6169,0.971,0.357,0.764,3.695
10.018,forward,0.4887,0.0000,0.4000,-0.0002,-0.0001,0.0121,0.4888,0.0001,0.3879,0.4888,0.6240,0.975,0.374,0.767,3.695
10.110,forward,0.4979,0.0000,0.4000,-0.0006,-0.0001,0.0115,0.4985,0.0001,0.3885,0.4985,0.6320,0.969,0.367,0.772,3.695
10.226,forward,0.5000,0.0000,0.4000,-0.0007,-0.0001,0.0122,0.5007,0.0001,0.3878,0.5007,0.6333,0.973,0.389,0.776,3.695
10.338,forward hover,0.5000,0.0000,0.4000,-0.0007,-0.0000,0.0111,0.5007,0.0000,0.3889,0.5007,0.6340,0.966,0.399,0.781,3.695
10.410,forward hover,0.5000,0.0000,0.4000,-0.0008,0.0005,0.0119,0.5008,-0.0005,0.3881,0.5008,0.6336,0.968,0.406,0.787,3.695
10.545,forward hover,0.5000,0.0000,0.4000,-0.0008,-0.0000,0.0110,0.5008,0.0000,0.3890,0.5008,0.6341,0.948,0.395,0.790,3.695
10.621,forward hover,0.5000,0.0000,0.4000,-0.0008,0.0009,0.0109,0.5008,-0.0009,0.3891,0.5008,0.6342,0.963,0.395,0.795,3.695
10.715,forward hover,0.5000,0.0000,0.4000,-0.0007,0.0008,0.0107,0.5007,-0.0008,0.3893,0.5007,0.6342,0.932,0.394,0.801,3.695
10.817,forward hover,0.5000,0.0000,0.4000,-0.0001,0.0001,0.0104,0.5001,-0.0001,0.3896,0.5001,0.6340,0.941,0.394,0.802,3.695
10.929,forward hover,0.5000,0.0000,0.4000,-0.0008,0.0007,0.0111,0.5008,-0.0007,0.3889,0.5008,0.6341,0.957,0.375,0.801,3.695
11.019,forward hover,0.5000,0.0000,0.4000,-0.0008,-0.0000,0.0115,0.5008,0.0000,0.3885,0.5008,0.6338,0.947,0.388,0.803,3.695
11.123,forward hover,0.5000,0.0000,0.4000,-0.0008,0.0000,0.0118,0.5008,-0.0000,0.3882,0.5008,0.6336,0.961,0.389,0.808,3.695
11.218,forward hover,0.5000,0.0000,0.4000,-0.0008,0.0000,0.0110,0.5008,-0.0000,0.3890,0.5008,0.6341,0.955,0.387,0.811,3.695
11.310,forward hover,0.5000,0.0000,0.4000,-0.0008,0.0006,0.0118,0.5008,-0.0006,0.3882,0.5008,0.6337,0.960,0.391,0.815,3.695
11.422,forward hover,0.5000,0.0000,0.4000,-0.0008,-0.0000,0.0118,0.5008,0.0000,0.3882,0.5008,0.6336,0.948,0.387,0.813,3.695
11.518,forward hover,0.5000,0.0000,0.4000,-0.0008,0.0008,0.0115,0.5008,-0.0008,0.3885,0.5008,0.6338,0.970,0.380,0.819,3.695
11.625,left,0.5000,0.0098,0.4000,-0.0008,0.0002,0.0116,0.5008,0.0096,0.3884,0.5009,0.6339,0.953,0.376,0.819,3.695
11.711,left,0.5000,0.0185,0.4000,-0.0009,0.0010,0.0113,0.5009,0.0175,0.3887,0.5012,0.6342,0.973,0.386,0.819,3.695
11.821,left,0.5000,0.0294,0.4000,-0.0002,0.0007,0.0113,0.5002,0.0288,0.3887,0.5010,0.6341,0.955,0.389,0.824,3.695
11.931,left,0.5000,0.0404,0.4000,-0.0009,0.0007,0.0125,0.5009,0.0397,0.3875,0.5025,0.6345,0.962,0.375,0.826,3.695
12.011,left,0.5000,0.0484,0.4000,-0.0008,-0.0001,0.0119,0.5008,0.0485,0.3881,0.5032,0.6355,0.965,0.402,0.833,3.695
12.120,left,0.5000,0.0594,0.4000,-0.0008,-0.0000,0.0115,0.5008,0.0594,0.3885,0.5043,0.6366,0.984,0.392,0.834,3.695
12.210,left,0.5000,0.0684,0.4000,-0.0008,-0.0001,0.0113,0.5008,0.0685,0.3887,0.5054,0.6376,0.984,0.383,0.835,3.695
12.328,left,0.5000,0.0801,0.4000,-0.0008,-0.0002,0.0111,0.5008,0.0803,0.3889,0.5072,0.6391,0.990,0.376,0.834,3.695
12.413,left,0.5000,0.0886,0.4000,-0.0009,-0.0001,0.0117,0.5009,0.0887,0.3883,0.5087,0.6399,0.985,0.383,0.838,3.695
12.533,left,0.5000,0.1006,0.4000,-0.0004,-0.0002,0.0119,0.5004,0.1008,0.3881,0.5104,0.6412,0.980,0.390,0.841,3.695
12.614,left,0.5000,0.1087,0.4000,-0.0003,0.0004,0.0121,0.5003,0.1084,0.3879,0.5119,0.6423,0.984,0.379,0.845,3.695
12.734,left,0.5000,0.1208,0.4000,-0.0003,-0.0001,0.0118,0.5003,0.1208,0.3882,0.5146,0.6446,0.975,0.376,0.844,3.695
12.825,left,0.5000,0.1298,0.4000,-0.0007,-0.0001,0.0109,0.5007,0.1299,0.3891,0.5173,0.6473,0.990,0.377,0.846,3.695
12.924,left,0.5000,0.1397,0.4000,-0.0007,-0.0001,0.0111,0.5007,0.1398,0.3889,0.5199,0.6493,0.985,0.378,0.851,3.695
13.009,left,0.5000,0.1483,0.4000,-0.0009,-0.0000,0.0112,0.5009,0.1483,0.3888,0.5223,0.6511,0.981,0.378,0.850,3.695
13.110,left,0.5000,0.1583,0.4000,-0.0009,-0.0000,0.0114,0.5009,0.1583,0.3886,0.5253,0.6534,0.979,0.381,0.856,3.695
13.224,left,0.5000,0.1697,0.4000,-0.0003,-0.0000,0.0121,0.5003,0.1697,0.3879,0.5283,0.6554,0.974,0.379,0.856,3.695
13.309,left,0.5000,0.1782,0.4000,-0.0009,-0.0001,0.0116,0.5009,0.1783,0.3884,0.5317,0.6585,0.971,0.353,0.858,3.695
13.410,left,0.5000,0.1883,0.4000,-0.0009,0.0009,0.0110,0.5009,0.1874,0.3890,0.5348,0.6613,0.969,0.362,0.860,3.700
